,Address,Category,Latitude,Longitude,Name,Neighborhood
0,"Pl. Oriente, 2",Food,40.41808083605312,-3.7118667284955524,Café de Oriente,Palacio
1,Plaza De Oriente 6,Food,40.41859789204018,-3.711351817860091,La Lonja del Mar,Palacio
2,27 C. de Preciados,Food,40.419667845686355,-3.7061354223688325,Starbucks Preciados 27,Palacio
3,"C. Pasadizo de San Ginés, 5",Food,40.416754336997364,-3.7070788402276738,Chocolatería San Ginés,Palacio
4,Calle Mayor,Food,40.41609478587808,-3.7081185796186933,Torrons Vicens: Artesa D' Agramunt,Palacio
5,"C. Mayor, 7",Food,40.416343036500216,-3.7056822482813363,Museo del Jamón,Palacio
6,,Food,40.415045,-3.708306,Mesón De San Miguel,Palacio
7,"C. Mayor, 2",Food,40.416651463931025,-3.7046623706905586,La Mallorquina,Palacio
8,Plaza Mayor,Food,40.41544584984964,-3.707157165211599,Una Copa de Balon,Palacio
9,Mercado de San Miguel,Food,40.41531278398085,-3.711930078230289,Horno La Santiaguesa,Palacio
10,"C. Toledo, 28",Food,40.41388815007209,-3.7074780464172363,CUBIERTOS DE GLORIA,Palacio
11,Preciados 42,Food,40.41981940106343,-3.707394086611548,Steak Burguer Bar,Palacio
12,"C. Mayor, 22",Food,40.41635860896427,-3.7070212149731483,100 Montaditos,Palacio
13,"C. Ciudad Rodrigo, 5",Food,40.41573297582015,-3.708717822655616,Starbucks San Miguel,Palacio
14,"C. Preciados, 3",Food,40.41749665225322,-3.704686028127798,Club del Gourmet Corte Ingles,Palacio
15,"Calle de los Cuchilleros, 17, LOC;DUP 17-19;",Food,40.41401880132313,-3.708135518254039,Botín,Palacio
16,"C. Mayor, 88",Food,40.41521986421654,-3.713437962658213,Dehesa Santa María,Palacio
17,"Gran Vía, 52",Food,40.421018866969845,-3.706743491492044,McDonald's,Palacio
18,"C. de Las Fuentes, 1",Food,40.41684998102102,-3.7086242881877367,Ramen Kagura,Palacio
19,C/ Mayor 40,Food,40.41606544853993,-3.7083827962064877,Amorino,Palacio
20,"C. Gran Vía, 58",Food,40.421751918201934,-3.7083782102926905,Starbucks Gran Vía 58,Palacio
21,"C. Arenal, 14",Food,40.41719516711848,-3.706118548830636,Starbucks Arenal 14,Palacio
22,"Pl. de Callao, 4",Food,40.42003484156928,-3.7055200338363643,Starbucks Callao,Palacio
23,"C. Bordadores, 5",Food,40.416446825353354,-3.7076618347638624,El Ñeru,Palacio
24,"C. San Martín, 2",Food,40.41758135061494,-3.7070293825992406,Churrería Los Artesanos 1902,Palacio
25,Pl. Santo Domingo,Food,40.41975399757663,-3.7079075699841124,Tim Hortons,Palacio
26,"C. Cuchilleros, 3",Food,40.414695277015596,-3.708133805013643,Cafeeke,Palacio
27,C. Arenal,Food,40.417045824676954,-3.7057418628089156,Ferpal,Palacio
28,Plaza Conde de Barajas 3,Food,40.41445972417601,-3.7087736699569414,Federal Café 2,Palacio
29,"Gran Vía, 63",Food,40.42261871831218,-3.70974260765463,100 Montaditos,Palacio
30,"C. Mayor, 77",Food,40.41521786102789,-3.7121938520878386,Cervecería La Mayor,Palacio
31,"C. Tetuán, 12",Food,40.41715,-3.7045143,Casa Labra,Palacio
32,C. Gran Vía 52,Food,40.421122488396605,-3.7071038062274884,KFC,Palacio
33,"C. Cava de San Miguel, 17",Food,40.414956249703074,-3.7082325358687616,Mesón del Champiñón,Palacio
34,"C. Bailén, 19",Food,40.41555664512505,-3.7132926628044824,El Anciano Rey de los Vinos,Palacio
35,,Food,40.41638437202477,-3.706059176058647,Las Farolas Churreria Chocolateria,Palacio
36,"Pl. Callao, 2, 9º",Food,40.41966660972929,-3.7054582485281027,Gourmet Experience,Palacio
37,"Calle Botoneras, 7",Food,40.41479468534335,-3.7067462773092226,Takos Al Pastor,Palacio
38,"Postigo de San Martín, 7",Food,40.419141023856376,-3.70623069012599,Chocolatería Valor,Palacio
39,"C. Postigo de San Martín, 8",Food,40.41937153198512,-3.706036221579081,La Central de Callao,Palacio
40,"C. Gran Vía, 59",Food,40.422158674603494,-3.709186347466517,Mesón El Jamón,Palacio
41,"C. Conchas, 9",Food,40.41890007704682,-3.708152925755745,Lambuzo,Palacio
42,"Costanilla de San Andrés, 12",Food,40.41283455101768,-3.7117671604527014,La Musa Latina,Palacio
43,"C. Botoneras, 4",Food,40.414881954231625,-3.706774570000363,Bar La Campana,Palacio
44,"C. Preciados, 50",Food,40.419876627165834,-3.7077819640461844,Topolino,Palacio
45,"C. Gran Vía, 53",Food,40.42163952012358,-3.7081553991737963,Tommy Mel's,Palacio
46,"C. Las Fuentes, 12",Food,40.41762112182556,-3.708475371846757,Fresc Co,Palacio
47,"C. Preciados, 3",Food,40.41777341720913,-3.705199804477992,Cafetería El Corte Inglés,Palacio
48,45 Calle Gran Vía,Food,40.420977443956716,-3.707225140859539,Carl’s Jr,Palacio
49,"C. Preciados, 40",Food,40.41976873108436,-3.7071476250900037,GramaBar,Palacio
0,"C. Mayor, 46",Food & Drink Shop,40.415900846371166,-3.7090393502265453,Carrefour Express,Palacio
1,C. Mayor,Food & Drink Shop,40.41572310680182,-3.709783381359632,Covirán,Palacio
2,Mercado de San Miguel,Food & Drink Shop,40.4153476745728,-3.7087191877253645,MozHeart,Palacio
3,Pl. de San Miguel,Food & Drink Shop,40.41544294871344,-3.708943462311585,Mercado de San Miguel,Palacio
4,"C. Preciados, 3",Food & Drink Shop,40.41760559783518,-3.7049784930946017,Supermercado El Corte Inglés,Palacio
5,,Food & Drink Shop,40.415271,-3.709214,MozHeart (South Kiosk),Palacio
6,,Food & Drink Shop,40.42042831572565,-3.70860431068611,DIA %,Palacio
7,C. Arenal,Food & Drink Shop,40.417809,-3.708658,Open 25,Palacio
8,calle santa clara 6,Food & Drink Shop,40.41766199930595,-3.7098598480224614,acaramelada,Palacio
9,"Arenal, 18",Food & Drink Shop,40.4172635323508,-3.70655538203502,La Madrileña,Palacio
10,"C. Preciados, 24",Food & Drink Shop,40.41864697700651,-3.705061157338267,Cafés La Mexicana,Palacio
11,"C. Mayor, 7",Food & Drink Shop,40.416343036500216,-3.7056822482813363,Museo del Jamón,Palacio
12,"Cuesta de Santo Domingo, 16",Food & Drink Shop,40.42011181206873,-3.7083284784922563,Restaurante Cervecería A Coruña,Palacio
13,,Food & Drink Shop,40.41316690065085,-3.707504829099798,DIA %,Palacio
14,,Food & Drink Shop,40.41974627119504,-3.7055811323225574,La Máquina,Palacio
15,Plaza Conde de Toreno 2,Food & Drink Shop,40.420616149902344,-3.7075400352478027,Suma,Palacio
16,"C. Postigo de San Martín, 3",Food & Drink Shop,40.41899126067884,-3.7063465931809505,Mariano Madrueño,Palacio
17,,Food & Drink Shop,40.420467,-3.7087743,Día & Go,Palacio
18,,Food & Drink Shop,40.41575835080766,-3.7066092344454167,Charcuteria Bartolomé,Palacio
19,"C. Preciados, 3",Food & Drink Shop,40.41749665225322,-3.704686028127798,Club del Gourmet Corte Ingles,Palacio
20,C. Leganitos,Food & Drink Shop,40.42216001826838,-3.710408600154652,Supermercado Chino,Palacio
21,"C/ Toledo, 34",Food & Drink Shop,40.413079440555286,-3.707558512687683,Frutos Secos Hnos. Ortiz Variantes,Palacio
22,Leganitos 33,Food & Drink Shop,40.422234,-3.710282,Hua Lian,Palacio
23,Bordadores 1,Food & Drink Shop,40.41617918451369,-3.7078927273906612,Carnicería Los Andes,Palacio
24,,Food & Drink Shop,40.415246,-3.709002,Beer House Mercado,Palacio
25,"Calle San Felipe Neri, 2",Food & Drink Shop,40.41628930656813,-3.708088517205397,LA CAJA DE VINOS,Palacio
26,,Food & Drink Shop,40.42072351471456,-3.7095330688202033,Supermercado Santo Domingo,Palacio
27,"Fomento, 37",Food & Drink Shop,40.422379,-3.711236,Churrería Félix García,Palacio
28,"C/ Cuchilleros, 14",Food & Drink Shop,40.413674619999995,-3.7091003666666666,Alimentación y frutos secos,Palacio
29,,Food & Drink Shop,40.420457,-3.715149,Supermercado Rocha,Palacio
30,,Food & Drink Shop,40.415303,-3.709291,eltxoko gourmet,Palacio
31,Cuchilleros,Food & Drink Shop,40.41392517089844,-3.708246946334839,España En Lata,Palacio
32,,Food & Drink Shop,40.42067641165328,-3.714469280722194,Mundolicor,Palacio
33,Calle Imperial,Food & Drink Shop,40.41382164125108,-3.706519245406063,Carrefour Express,Palacio
34,Mercado de San Miguel,Food & Drink Shop,40.41543910657383,-3.7090459874334214,Hamburguesa Nostra,Palacio
35,"Callejón de Preciados, 3",Food & Drink Shop,40.41752740837107,-3.704661757096611,Nespresso Club del Gourmet,Palacio
36,Calle Mayor 88,Food & Drink Shop,40.41513265500589,-3.7133581694444984,Tienda La Rebelión de los Mandiles,Palacio
37,Duque de Rivas 8,Food & Drink Shop,40.413246,-3.706476,Madrid & Darracott,Palacio
38,Cuchilleros 14,Food & Drink Shop,40.414784,-3.708236,El Chino de Cuchilleros,Palacio
39,,Food & Drink Shop,40.41704396553202,-3.708046352278456,Gourmet Spanish House,Palacio
40,"Plaza De La Marina Española, 4",Food & Drink Shop,40.420621974754084,-3.7122390049298493,Casa Tequilera Azteca,Palacio
41,Plaza de San Miguel 4,Food & Drink Shop,40.414884,-3.708266,Gama,Palacio
42,Ronda de Segovia 36,Food & Drink Shop,40.41391576666667,-3.7119532000000004,Alimentación zulie,Palacio
43,"Calle Latoneros, 6",Food & Drink Shop,40.41373656534804,-3.707813437308349,Flor Maia,Palacio
44,,Food & Drink Shop,40.41568,-3.7097,Los Ferreros,Palacio
45,"Pl. Callao, 2, 9º",Food & Drink Shop,40.41966660972929,-3.7054582485281027,Gourmet Experience,Palacio
46,"Calle Mayor, 51",Food & Drink Shop,40.41574529301705,-3.708561742403395,SuperSano,Palacio
47,Toledo 70,Food & Drink Shop,40.413114,-3.7075111450085414,Maxi DIA %,Palacio
0,Calle De La Union 7,Clothing Store,40.417564,-3.710588,Madrid T-Shirt,Palacio
1,C. Preciados,Clothing Store,40.415181546735326,-3.7097164335505517,Geox,Palacio
2,"Calle de Arenal, 14",Clothing Store,40.417434,-3.706324,Toni Pons,Palacio
3,Arenal 21,Clothing Store,40.41776,-3.7087612,Citees,Palacio
4,,Clothing Store,40.417244,-3.706305,Witukaw,Palacio
5,9 Calle de Preciados,Clothing Store,40.41823222124022,-3.704878306990603,Pull&Bear,Palacio
6,Calle Arenal,Clothing Store,40.417094,-3.706271,Happy Socks,Palacio
7,Calle Mayor 28,Clothing Store,40.416121,-3.707373,La hija de Caín,Palacio
8,C/ Preciados 25,Clothing Store,40.41967654806793,-3.705589146002764,Desigual Preciados,Palacio
9,Calle Sol 10,Clothing Store,40.4170629,-3.7042734,adidas Store,Palacio
10,Calle Arenal 28,Clothing Store,40.417675906276784,-3.708487406965496,Amichi,Palacio
11,plaza mayor 30,Clothing Store,40.415625563708595,-3.7070106322176155,casa yustas,Palacio
12,"Pl. del Callao, 2",Clothing Store,40.41965416266817,-3.705501694920485,Boutique Nespresso,Palacio
13,"C. Arenal, 3",Clothing Store,40.416972194176466,-3.705221711103812,Pronovias,Palacio
14,"C. Preciados, 17",Clothing Store,40.41765360767839,-3.704294264316559,Foot Locker,Palacio
15,"Calle de Bordadores, 6",Clothing Store,40.41671222,-3.7074348099999996,Soda,Palacio
16,"c/ Gran Vía, 54.",Clothing Store,40.421212183536554,-3.7074615890659923,Camper,Palacio
17,Preciados 20,Clothing Store,40.418490751104365,-3.7048710727493295,Bershka,Palacio
18,,Clothing Store,40.417362,-3.7066314,Sketchers,Palacio
19,,Clothing Store,40.414837,-3.705915,Moda Gloria Diseno,Palacio
20,"Calle Mayor, 21",Clothing Store,40.416237,-3.7066228,Adidas Store,Palacio
21,Calle Gran Vía,Clothing Store,40.420158353572056,-3.7056625642463814,ulanKa,Palacio
22,,Clothing Store,40.41378998854361,-3.7066092344454167,Almacenes Toledo,Palacio
23,,Clothing Store,40.41886428073398,-3.7050482733598504,Intimissimi,Palacio
24,"Gran Vía, 51",Clothing Store,40.421428090720106,-3.7078415193211174,Boutique Lacoste,Palacio
25,"Bordadores, 5",Clothing Store,40.416651,-3.707515,Mine Dog Gold Mine Bordadores,Palacio
26,C/ Arenal,Clothing Store,40.41726787293476,-3.7061186414897627,women'secret,Palacio
27,Victoria 2,Clothing Store,40.41750765388947,-3.7057526343293823,Maty,Palacio
28,"C. Arenal, 12",Clothing Store,40.41719533008894,-3.7057271616323137,Etam,Palacio
29,"C. Toledo, 30",Clothing Store,40.41311531038107,-3.7073476105821865,Lobo,Palacio
30,,Clothing Store,40.417672151930624,-3.7043644389022243,Punt Roma,Palacio
31,,Clothing Store,40.414534285325345,-3.707486367031204,Casa Hernanz,Palacio
32,,Clothing Store,40.416408,-3.707824,Shunkfunk,Palacio
33,Calle Toledo 30,Clothing Store,40.413320660591125,-3.7073761224746704,Calzados Lobo,Palacio
34,Ronda Del Saliente,Clothing Store,40.41671002501901,-3.7041910040952355,pontejos,Palacio
35,arenal 8,Clothing Store,40.41698642919903,-3.705355506340846,Hakei,Palacio
36,"Calle de la Concepción Jerónima, 29, 28012 Madrid",Clothing Store,40.4138252215737,-3.7067232112671067,Vicente rico disfraces,Palacio
37,C/Preciados 6,Clothing Store,40.41761658352227,-3.7045923826950684,House of Hoops Madrid,Palacio
38,"c/ Arenal, 3.",Clothing Store,40.41695178094199,-3.7050135858823596,Camper,Palacio
39,"Felipe V, 2",Clothing Store,40.41854965005723,-3.710534149213574,Mi Favorita Finest Ballet Garments,Palacio
40,,Clothing Store,40.418892,-3.711826,Otavio Nuccio Gala,Palacio
41,"Calle Pavia, 2",Clothing Store,40.41887089325722,-3.7114906311035156,Trajes de Novio,Palacio
42,,Clothing Store,40.417486,-3.707352,Esteve,Palacio
43,,Clothing Store,40.413273828346284,-3.706698433675348,Faira,Palacio
44,"C/ Preciados, 10",Clothing Store,40.41774986325988,-3.7045061992506656,Mango,Palacio
45,"C. Preciados, 4",Clothing Store,40.41739229099138,-3.7042130440093137,Sfera,Palacio
46,C/ Preciados nº 13,Clothing Store,40.41856599188025,-3.705114138382592,Springfield,Palacio
47,Calle Toledo 18,Clothing Store,40.41415211250404,-3.707469659645076,Alpargatería Casa Hernanz,Palacio
0,Gran Via 54,Bus Stop,40.42106458637214,-3.7075458341971825,Parada EMT #168,Palacio
1,,Bus Stop,40.420177,-3.7072914,Parada EMT 5570,Palacio
2,,Bus Stop,40.420836,-3.708287,Parada Emt 5573,Palacio
0,Pl. de Isabel II,Metro Station,40.41812353769271,-3.709437629355202,Metro Ópera,Palacio
1,"Pl. del Callao, 1",Metro Station,40.42016543090694,-3.7057899845796194,Metro Callao,Palacio
2,Pza. de Santo Domingo 6,Metro Station,40.42084177364492,-3.7081504210156364,Metro Santo Domingo,Palacio
0,"C. Bailén, s/n",Arts & Entertainment,40.41793972010854,-3.714258670806885,Palacio Real de Madrid,Palacio
1,Pl. de Isabel II,Arts & Entertainment,40.41822583203057,-3.7110644324883078,Teatro Real de Madrid,Palacio
2,,Arts & Entertainment,40.417412,-3.71358,Cartas Al Rey. La Mediación Humanitaria De Alfonso Xiii En La Gran Guerra,Palacio
3,"C. Bailén, 8-10",Arts & Entertainment,40.41576693264202,-3.7145161628723145,Santa Iglesia Catedral de Santa María la Real de la Almudena (Catedral de la Almudena),Palacio
4,Metro Ópera Planta 2,Arts & Entertainment,40.41807390956327,-3.709421770077295,Museo de los Caños del Peral,Palacio
5,"Plaza de la Almudena, S/N",Arts & Entertainment,40.4156774055791,-3.713479327998357,Museo de la Catedral de la Almudena,Palacio
6,,Arts & Entertainment,40.41651673696806,-3.713547421489713,Real Armeria,Palacio
7,"Calle Mayor, 69",Arts & Entertainment,40.415351672908926,-3.7112329348781796,Centro Sefard Israel Madrid,Palacio
8,C/ de Bailén,Arts & Entertainment,40.41647497131268,-3.7139800986647775,Plaza de la Armería,Palacio
9,,Arts & Entertainment,40.417639,-3.714319,Reales Cocinas del Palacio Real,Palacio
10,Calle de Bailén,Arts & Entertainment,40.418053,-3.7143586,Palacio Real de Madrid,Palacio
11,Pl. de la Villa,Arts & Entertainment,40.415408601788656,-3.710390924213192,Plaza de la Villa,Palacio
12,"Camino de Perales, 4",Arts & Entertainment,40.41500596427873,-3.709483510898939,Iglesia Del Corpus Christi,Palacio
13,"C. Toledo, 37",Arts & Entertainment,40.41302225870636,-3.7074136734008785,Antigua Catedral de San Isidro,Palacio
14,Pl. de las Descalzas Reales,Arts & Entertainment,40.41821556333516,-3.7065309847742736,Monasterio de las Descalzas Reales,Palacio
15,Pl. Mayor,Arts & Entertainment,40.415437525568024,-3.707521056202871,Plaza Mayor,Palacio
16,Cuesta de la Vega,Arts & Entertainment,40.414880609756715,-3.7149895156627006,Muralla musulmana de Madrid,Palacio
17,Cuesta Santo Domingo 24,Arts & Entertainment,40.41988373362766,-3.7081003189086914,Fox in a Box,Palacio
18,Calle de San Justo 4,Arts & Entertainment,40.41413836034796,-3.709684508176225,Basílica de San Miguel,Palacio
19,"C. Bailén, 3",Arts & Entertainment,40.42141930123384,-3.7128424644470215,Senado de España,Palacio
20,,Arts & Entertainment,40.4154384665124,-3.7139538304816746,Arcón Funerario de San Isidro Catedral de Santa María la Real de la Almudena,Palacio
21,"C. del Sacramento, 1",Arts & Entertainment,40.41511383129468,-3.712331292943614,Iglesia Catedral de las Fuerzas Armadas,Palacio
22,Plaza de Santo Domingo,Arts & Entertainment,40.42010140324984,-3.7080407772724366,Plaza de Santo Domingo,Palacio
23,C/ Arenal 8,Arts & Entertainment,40.417338260137555,-3.70544297143025,Casita Museo de Ratón Pérez,Palacio
24,,Arts & Entertainment,40.422315,-3.708924,Teatro Edp Gran Via,Palacio
25,"C. Concepción Jerónima, 15",Arts & Entertainment,40.413663321236676,-3.705447800535241,Imprenta Municipal,Palacio
26,"Cuchilleros, 7",Arts & Entertainment,40.414535529593635,-3.708108373041791,La Taberna de Mister Pinkleton,Palacio
27,"C. Arenal, 11",Arts & Entertainment,40.41695263825091,-3.706693774060599,Joy Eslava,Palacio
28,,Arts & Entertainment,40.416663,-3.704251,calle correos,Palacio
29,Pza. de las Descalzas,Arts & Entertainment,40.41818068281724,-3.706609010696411,Plaza de las Descalzas,Palacio
30,"C/ de las Hileras, 14",Arts & Entertainment,40.41762440244889,-3.707630283160022,La Coquette,Palacio
31,"C. Morería, 17",Arts & Entertainment,40.412619019854375,-3.7142493289306913,Corral de la Morería,Palacio
32,"Calle del Arenal, 9",Arts & Entertainment,40.41713929663129,-3.7060442727377425,Palacio de Gaviria,Palacio
33,"Gran Vía, 54",Arts & Entertainment,40.42149407548861,-3.7071249062844207,Teatro Rialto,Palacio
34,"C. San Bernardo, 5",Arts & Entertainment,40.42113145524051,-3.7081623926383154,Teatro Arlequín Gran Vía,Palacio
35,"Gran Vía, 41",Arts & Entertainment,40.42063906535641,-3.7064681978527543,Cine Capitol 3D,Palacio
36,Gran Vía 66,Arts & Entertainment,40.42259093630041,-3.708986132310963,Teatro de la Luz Philips,Palacio
37,C/ Segovia 17,Arts & Entertainment,40.413976,-3.7121719121932983,Rincón del Arte Nuevo,Palacio
38,Plaza de España 9,Arts & Entertainment,40.421742983610315,-3.7134540870358648,Las Tablas Tablao Flamenco,Palacio
39,Pl. de Puerta Cerrada,Arts & Entertainment,40.413795497235036,-3.7081173980299615,Plaza de Puerta Cerrada,Palacio
40,"Calle del Carmen, 22",Arts & Entertainment,40.41882754953965,-3.704943326172927,Doña Manolita,Palacio
41,"C. Jacometrezo, 4",Arts & Entertainment,40.42027059333172,-3.707001120859226,Café Berlin,Palacio
42,Gran Vía 57,Arts & Entertainment,40.42151046064538,-3.708903833873936,"El Rey León, El Musical",Palacio
43,,Arts & Entertainment,40.42056772989122,-3.706567789956222,Teatro Capitol,Palacio
44,"Gran Vía, 70",Arts & Entertainment,40.422670746274996,-3.709532872638126,La Chocita del Loro Senator,Palacio
45,"C. Caños Viejos, 3",Arts & Entertainment,40.41343881739265,-3.713393310568251,Marula Café,Palacio
46,"C/ Bailén, 16",Arts & Entertainment,40.41263919986747,-3.713827208907879,Contraclub,Palacio
47,"Pl. Callao, 3",Arts & Entertainment,40.42023508737295,-3.7060891114606473,Cines Callao - Callao City Lights,Palacio
48,"Pl. de la Paja, 2",Arts & Entertainment,40.41293899146668,-3.71163199754738,Restaurante El Cosaco,Palacio
49,"Gran Vía, 57",Arts & Entertainment,40.421555624426574,-3.7088823820699344,Teatro Lope de Vega,Palacio
0,,Park,40.417535,-3.712035,Parque Infantil Plaza De Oriente,Palacio
1,Pz. de Oriente,Park,40.41740870811962,-3.712464877753914,Jardines de Lepanto,Palacio
2,Pz. de Oriente,Park,40.41916494525819,-3.712327480316162,Jardines del cabo Noval,Palacio
3,,Park,40.421606326847645,-3.708854129517835,スペイン広場,Palacio
4,Cuesta de Ramón,Park,40.414676428277154,-3.714789748191833,Parque del Emir Mohamed I,Palacio
5,,Park,40.414784907926006,-3.7154902841803747,Parque Cuesta De La Vega,Palacio
6,"C. Bailén, 2",Park,40.4199537391734,-3.713126238343502,Jardines de Sabatini,Palacio
0,La Flora 3,Athletics & Sports,40.41818156669019,-3.707970530975214,Gimnasio y Piscina Arian,Palacio
1,"Calle Mayor, 6",Athletics & Sports,40.41647661391564,-3.7053298415720475,Myst Gym Club,Palacio
2,,Athletics & Sports,40.41489987922848,-3.7091908728207295,FitUp,Palacio
3,Pl. de San Martín 5,Athletics & Sports,40.41857078825801,-3.7067000428990893,Hotel Intur Palacio San Martín,Palacio
4,,Athletics & Sports,40.41323001603948,-3.7088888196264933,Virgin Classic Capitan Haya,Palacio
5,"Plaza Izabel II, 5",Athletics & Sports,40.41842853581367,-3.710028650700107,Om Yoga,Palacio
6,"Calle de Fomento, 3",Athletics & Sports,40.42013,-3.709618,Opera Gym,Palacio
7,,Athletics & Sports,40.420684814453125,-3.707364797592163,The Cellar Gym,Palacio
8,"C/ de la Unión, 7",Athletics & Sports,40.41754,-3.710506,Movement Studio,Palacio
9,Cuesta de los ciegos,Athletics & Sports,40.41364763954604,-3.715352497170417,Cuesta De Los Ciegos,Palacio
10,Gran Via,Athletics & Sports,40.42263937372399,-3.70956280359624,Acquaplaya Spa,Palacio
11,,Athletics & Sports,40.41765814482205,-3.710439987343392,movement studio. Gyrotonic,Palacio
12,"Pl. Conde de Miranda, 1 Local 1",Athletics & Sports,40.414856881764855,-3.7093633860755775,Urban Yoga,Palacio
13,calle la paz,Athletics & Sports,40.41680466804477,-3.704354528325818,Centro Bindu,Palacio
14,,Athletics & Sports,40.421185,-3.715503,Kate's yogamat,Palacio
15,"C/ Caños del Peral 11, Bajo - Izq",Athletics & Sports,40.41900017266347,-3.7082252519765855,Pilates Ópera,Palacio
16,"Calle de Las Navas de Tolosa, 5",Athletics & Sports,40.41910006666667,-3.7067286999999993,Calgym,Palacio
17,Plaza de la Moreria 2,Athletics & Sports,40.41289546093881,-3.7128684283747444,Kross Gym,Palacio
0,Cuesta santo domingo 13,School,40.4204849928738,-3.708723897827395,Alliance Francaise,Palacio
1,,School,40.418453216552734,-3.7052364349365234,Briam A+,Palacio
2,Plaza de la Paja 4,School,40.4126865,-3.7114438999999493,Centro de Enseñanza Secundaria Santa Bárbara,Palacio
3,C/ Fomento,School,40.42075566261965,-3.710845559835434,I.E.S. Santa Teresa de Jesús,Palacio
4,"Plaza españa, 10",School,40.422626,-3.714102,Ábaco centro de estudios,Palacio
5,Gran vía 60,School,40.421903,-3.708413,ELP,Palacio
6,Plaza de Santa María Soledad Torres Acosta n°1,School,40.419682333685884,-3.706585656176896,Solo Idiomas,Palacio
7,Gran Via 59,School,40.42217882481973,-3.7092704123901177,Instituto Vox,Palacio
8,,School,40.42054038520097,-3.7084229830075826,Nuestra Señora Del Buen Consejo,Palacio
0,"C. Arenal, 26",University,40.41786680564627,-3.7083983206174476,Eureka,Palacio
1,"Cuesta San Vicente, 4",University,40.421659902592445,-3.713618972542852,Trazos,Palacio
2,"C. Bernardino Obregón, 25",University,40.41326754802807,-3.71080316773998,IMF Business School,Palacio
0,"Pz. San Miguel, 9",Bank,40.41555750490621,-3.709305102783937,BBVA Oficina,Palacio
1,Plaza Mostenses,Bank,40.4228,-3.7088,Parking Saba Plaza Mostenses,Palacio
2,"C. Arenal,19",Bank,40.41766501575812,-3.7084923626579607,Banco Santander,Palacio
3,,Bank,40.42010972367336,-3.7095925383897352,Western Union,Palacio
4,"C/ Arenal, 24",Bank,40.417552239306794,-3.707848126704084,La Caixa,Palacio
5,"Pza de la Puerta del Sol, 8",Bank,40.41674714620124,-3.7045919895172115,Ria - Money Transfer & Change,Palacio
6,"Calle Alcalá, 27",Bank,40.41846268138767,-3.7092704123901177,Cecabank,Palacio
7,gran vía 62,Bank,40.42163553854262,-3.7085865209069433,La Caixa,Palacio
8,"Gran Via, 61",Bank,40.422463,-3.709547,BBVA Gran Via,Palacio
9,,Bank,40.413209203835656,-3.708348647773375,Bankia,Palacio
10,"Gran Via , 61",Bank,40.421965833688084,-3.7090969607774733,BBVA Oficina,Palacio
11,"Pl. De Santa Cruz, 2",Bank,40.414739381341604,-3.705623097875689,BBVA Oficina,Palacio
12,,Bank,40.41666260569378,-3.7042752437844153,Sucursal BBK,Palacio
13,Cuesta de San Vicente,Bank,40.4204363837258,-3.7158917523408928,Bankia,Palacio
14,Calle Mayor,Bank,40.41639859698702,-3.706004666029035,La Caixa,Palacio
15,"Pl. de Celenque, 2",Bank,40.41748442614424,-3.7058272612854024,Bankia,Palacio
16,C/ Antonio Mauro 20,Bank,40.41662124363072,-3.70602944328128,Deutsche Bank,Palacio
17,"Calle Gran Vía, 39, 28013 Madrid",Bank,40.419876558625624,-3.7061830625158447,Allianz Sucursal,Palacio
18,,Bank,40.41973529736642,-3.7058906908248854,Banesto,Palacio
19,Calle Mayor,Bank,40.415551,-3.710044,Popular,Palacio
20,,Bank,40.414132476729264,-3.711029740889393,Bankia,Palacio
21,C. Jacometrezo,Bank,40.41940147848404,-3.7071840766839967,Barclays Bank,Palacio
22,C. Mayor,Bank,40.416492,-3.707714,Barclays Bank,Palacio
0,"Calle MAYOR, 59",Pharmacy,40.415649253,-3.709787945,Real Farmacia Reina Madre,Palacio
1,,Pharmacy,40.41732662861956,-3.705781671304482,GNC Arenal,Palacio
2,"Calle de Preciados, 14, 28013 Madrid",Pharmacy,40.41868094298541,-3.7052068449881905,Farmacia Cea,Palacio
3,,Pharmacy,40.41811936595236,-3.7084973183509105,Farmacia,Palacio
4,"Preciados, 19",Pharmacy,40.419852,-3.7068686200000003,Farmacia Preciados 19,Palacio
5,"Calle Mayor, 59",Pharmacy,40.415643,-3.710004,Farmacia Mercedes Ramos Cid,Palacio
6,"Calle Mayor, 13, 28013 Madrid",Pharmacy,40.4164523131725,-3.7060343987331845,Farmacia Mayor 13,Palacio
7,,Pharmacy,40.413445,-3.713729,Farmacia Las Vistillas,Palacio
8,"Plaza de Puerta Cerrada, 5",Pharmacy,40.41357733286244,-3.709310058556423,Farmacia Isabel Ortega Herce,Palacio
9,"C/ Arenal, 2",Pharmacy,40.41714642868766,-3.704874836210067,Farmacia Arenal 2 (Antigua Farmacia Gayoso),Palacio
10,"Leganitos, 8",Pharmacy,40.42119089359745,-3.709929533936163,Farmacia Varela,Palacio
11,"Calle Mayor, 13",Pharmacy,40.41640566666666,-3.7058012888888894,Farmacia Lda. M. Teresa Jiménez Guijarro,Palacio
12,"Calle Gran Vía, 56, 28013 Madrid",Pharmacy,40.42110495556564,-3.706827277284899,Farmacia Rialto,Palacio
13,C/ Tetuan 8,Pharmacy,40.41721358147362,-3.7063168602934633,Antigua Farmacia Gayoso,Palacio
14,Plaza de san Miguel 8,Pharmacy,40.415497,-3.709216,Farmacia Mª Antonia Serrano,Palacio
15,,Pharmacy,40.419576601499635,-3.7077093692637337,Farmacia Gran Vía,Palacio
16,,Pharmacy,40.417468821836685,-3.7047410422433593,farmacia san gines,Palacio
17,Calle Fuencarral 54,Pharmacy,40.41543812277328,-3.7089036868231924,Langa Ópticos,Palacio
18,Plaza Mayor,Pharmacy,40.41618334211529,-3.7080265296861,santiveri,Palacio
19,"C. Princesa, 16",Pharmacy,40.420692443847656,-3.7076096534729004,Farmacia Mmul. P,Palacio
20,,Pharmacy,40.417217,-3.704237,Gayoso,Palacio
21,,Pharmacy,40.41643439365145,-3.7086905907542462,Herbolario del Niño Remedio,Palacio
0,"C. Torrecilla del Leal, 12",Food,40.411135324189495,-3.699521331741858,El Sur,Embajadores
1,Calle de Santa Isabel 5,Food,40.41152590000001,-3.6987288,Mercado de Antón Martín,Embajadores
2,,Food,40.411617,-3.6987283,Urban Orchard,Embajadores
3,"C. Ave María, 45",Food,40.40922356446051,-3.7009861093587224,Café Barbieri,Embajadores
4,"C. Torrecilla del Leal, 3",Food,40.41149716350271,-3.6994495684985402,La Esperanza,Embajadores
5,"C. Atocha, 54",Food,40.412244539877705,-3.6990800499916077,Museo del Jamón,Embajadores
6,"Calle Ave María, 19",Food,40.41082784575748,-3.700475451857145,NAP Neapolitan Authentic Pizza,Embajadores
7,,Food,40.409925433621694,-3.696936332307282,Zero Point Coffee Shop,Embajadores
8,Plaza Jacinto Benavente,Food,40.41456893127348,-3.70311365646874,Subway,Embajadores
9,Plaza Del Angel 2,Food,40.414465,-3.702782,Mistura Ice Cream,Embajadores
10,"C. Valencia, 4",Food,40.408159071552255,-3.7006140316121328,Portomarín,Embajadores
11,"Calle verónica, 9",Food,40.411838,-3.69485,Acid Café,Embajadores
12,"C. Santa Maria, 30",Food,40.41289086814537,-3.697064538818191,Chocolat,Embajadores
13,"Pl. de Jacinto Benavente, 2",Food,40.414233541699424,-3.7033369800874576,Maestro Churrero,Embajadores
14,"C. Huertas, 19",Food,40.413759722199444,-3.6994574585588165,Alimentación Quiroga,Embajadores
15,C. Atocha,Food,40.41272542113091,-3.6998204746212178,Granier,Embajadores
16,Atocha 89,Food,40.41118447761985,-3.6967002725414266,Panaria,Embajadores
17,Plaza Santa Ana 9.,Food,40.41439534091891,-3.7007070166736185,Five Guys,Embajadores
18,"Calle Tribulete, 6",Food,40.408052755824485,-3.7019489245460124,PUM PUM CAFÉ,Embajadores
19,"Calle Meson De Paredes, 22",Food,40.410529,-3.704728,ADORADO,Embajadores
20,,Food,40.407742,-3.696379,La Libre,Embajadores
21,,Food,40.41289120242951,-3.700055684503051,Giolatto,Embajadores
22,"Calle Doctor Fourquet, 33",Food,40.40708312303291,-3.6991170007772296,Hola Coffee,Embajadores
23,"C. Atocha, 20",Food,40.41385383986997,-3.7028908043886357,La Rollerie,Embajadores
24,"Ronda de Atocha, 26",Food,40.40645930966909,-3.698579308407954,Mercadona,Embajadores
25,"Costanilla de los Desamparados, 13",Food,40.41213451312291,-3.696623656621767,Plenti,Embajadores
26,"Plaza de Tirso de Molina, 20, BAJO-DCHA",Food,40.41256386,-3.703755163,La Carpa,Embajadores
27,"C. Cañizares, 10",Food,40.41267737917284,-3.7017365524042884,Casa Patas,Embajadores
28,"C. Sombrerete, 1",Food,40.40784187215142,-3.704124108013479,Peyma,Embajadores
29,"C. Huertas, 18",Food,40.413808,-3.700124,Casa Alberto,Embajadores
30,"Pl. de Santa Ana, 12",Food,40.41457050395633,-3.701133477680609,Lateral,Embajadores
31,C. Argumosa 28,Food,40.407589,-3.696473,O Pazo de Lugo,Embajadores
32,"C. Príncipe, 18",Food,40.41522733329538,-3.7003301939982185,100 Montaditos,Embajadores
33,"Calle de Álvarez Gato, 4",Food,40.41502338061646,-3.7018643661445174,InClan Brutal Bar,Embajadores
34,"C. Ventura de la Vega, 13",Food,40.41535302116083,-3.6989406886968395,Arrocería Marina Ventura,Embajadores
35,"C. Huertas, 74",Food,40.41292121965939,-3.695151714817362,Los Rotos,Embajadores
36,"Almaden,14",Food,40.41103704082606,-3.694318167691207,Tinto y Tapas,Embajadores
37,"Pl. de Jesús, 4",Food,40.413811807653936,-3.6956569729216513,La Dolores,Embajadores
38,"C. Meson de Paredes, 81",Food,40.40624798333449,-3.7016229025549228,Donde da la vuelta el Viento,Embajadores
39,"C. Cervantes, 28",Food,40.41435989216732,-3.6967134353360627,El Barril de las Letras,Embajadores
40,"C. León, 12",Food,40.41398980434345,-3.698821409425091,Casa González,Embajadores
41,"C. Sombrerete, 20",Food,40.40836,-3.702761,Cafelito,Embajadores
42,"C. de la Cruz, 35",Food,40.414844515186154,-3.702683456732465,Taberna del Chato,Embajadores
43,"C. del Prado, 16",Food,40.41483704752955,-3.6985914897741425,Lamucca de Prado,Embajadores
44,"C. Duque de Alba, 4",Food,40.411928907144485,-3.7057817062423974,El Imparcial,Embajadores
45,"C. Manuel Fernández y González, 7",Food,40.41516746717612,-3.6998336282593405,Restaurante Viva Madrid,Embajadores
46,"C. Embajadores, 9",Food,40.41015211180619,-3.7063668093387503,Café Pavón,Embajadores
47,"C. Alameda, 9",Food,40.41162297566508,-3.693961274574793,La Fábrica,Embajadores
48,"Pl. de Jesús, 7",Food,40.41424917795828,-3.6956805516466575,Cervecería Cervantes,Embajadores
49,"P. del Prado, 26",Food,40.4121920882941,-3.693209850387824,Burger King,Embajadores
0,Calle de Santa Isabel 5,Food & Drink Shop,40.41152590000001,-3.6987288,Mercado de Antón Martín,Embajadores
1,"C. Santa Isabel, 28-30",Food & Drink Shop,40.4109575,-3.6985105,Carrefour Express,Embajadores
2,,Food & Drink Shop,40.411568,-3.6987314,La Quesería De Antón Martín,Embajadores
3,"C. Santa Isabel, 3",Food & Drink Shop,40.41105707552624,-3.6991467888482017,Palacio Alimentación,Embajadores
4,Santa Isabel 32,Food & Drink Shop,40.41072310554297,-3.698061704128071,Frutas del Dia,Embajadores
5,"C. Amor de Dios, 19",Food & Drink Shop,40.41221349695869,-3.6986107910103247,la Sirena,Embajadores
6,Atocha,Food & Drink Shop,40.411864,-3.698547,Pannus,Embajadores
7,"C. Santa Isabel, 1",Food & Drink Shop,40.412091004613536,-3.6994957923889156,Charcuteria La Leonesa,Embajadores
8,"C. Valencia, 2",Food & Drink Shop,40.408365918531075,-3.700947068922335,Carrefour Market,Embajadores
9,,Food & Drink Shop,40.40769843613117,-3.7005291907571336,Fruteria Apu,Embajadores
10,"C. Santa Isabel, 5",Food & Drink Shop,40.41183878511134,-3.698695906070424,Orbayu,Embajadores
11,,Food & Drink Shop,40.411884,-3.6985345,La Consentida De Doré,Embajadores
12,1 Calle Fucar,Food & Drink Shop,40.4124572,-3.695562999999993,Be Hoppy,Embajadores
13,"Plaza del Ángel, 11",Food & Drink Shop,40.4142498,-3.7020185,Carrefour Express,Embajadores
14,C. Santa Isabel,Food & Drink Shop,40.40986187090371,-3.6967057938827153,Dia %,Embajadores
15,"Calle de Atocha, 98",Food & Drink Shop,40.40979304348999,-3.698210344495114,Alimentacion,Embajadores
16,"Santa Isabel, 5",Food & Drink Shop,40.410119,-3.70134,Actitud Natural,Embajadores
17,Mercado De San Antón,Food & Drink Shop,40.411542,-3.698768,Color Aceituna,Embajadores
18,"C. Atocha, 95",Food & Drink Shop,40.41095447611814,-3.696198317451178,La Casa de la Miel,Embajadores
19,"Leon, 30",Food & Drink Shop,40.412699,-3.699352,Licorilandia,Embajadores
20,"Calle de la  Alameda, 12",Food & Drink Shop,40.41166,-3.694107,Carrefour Express,Embajadores
21,"C. Huertas, 19",Food & Drink Shop,40.413759722199444,-3.6994574585588165,Alimentación Quiroga,Embajadores
22,Plaza Tirso de Molina 15,Food & Drink Shop,40.412602819264826,-3.7050076427668737,Carrefour Market,Embajadores
23,"Calle de Lavapies, 49",Food & Drink Shop,40.408478,-3.700845,Mitali Supermercado,Embajadores
24,Embajadores 41,Food & Drink Shop,40.407497,-3.703717,Bendito Vinos y Vinilos,Embajadores
25,Calle León,Food & Drink Shop,40.413247,-3.699193,Moega,Embajadores
26,C/ de la Magdalena,Food & Drink Shop,40.41247902871844,-3.702296018600464,Bao,Embajadores
27,"León, 32",Food & Drink Shop,40.412784770280894,-3.699382880185818,Más Que Cervezas,Embajadores
28,"C. Doctor Fourquet, 30",Food & Drink Shop,40.40701789416569,-3.699367046356201,La Fisna,Embajadores
29,"Ronda de Atocha, 26",Food & Drink Shop,40.40645930966909,-3.698579308407954,Mercadona,Embajadores
30,"Calle de la Alameda, 12",Food & Drink Shop,40.4115486298837,-3.6939594023450244,Carrefour Express,Embajadores
31,"Calle de las Huertas, 72",Food & Drink Shop,40.413042,-3.695354,DIA Supermercado,Embajadores
32,"Plaza Matute, 11",Food & Drink Shop,40.41344817840071,-3.699840462505044,Supermercado Vecino,Embajadores
33,Calle León,Food & Drink Shop,40.41439460966857,-3.6985838413238525,Carrefour Express,Embajadores
34,Calle Argumosa 22,Food & Drink Shop,40.40793,-3.697768,Cosmo Cash & Carry,Embajadores
35,Echegaray 17,Food & Drink Shop,40.41533808471944,-3.6995306611061096,Los Rosales,Embajadores
36,"Pl. Tirso de Molina, 17",Food & Drink Shop,40.412552548823,-3.7041789293289185,Don Fruta,Embajadores
37,,Food & Drink Shop,40.415007,-3.696945,Gamma Supermercado,Embajadores
38,San Pedro 8,Food & Drink Shop,40.41220032663458,-3.6949106311041473,Bodega Trigo,Embajadores
39,"Embajadores, 41",Food & Drink Shop,40.407715422064975,-3.7036407242011156,La buena pinta,Embajadores
40,"Pl. Tirso de Molina, 16",Food & Drink Shop,40.41264827756243,-3.7045453958003733,Lidl,Embajadores
41,C/ Argumosa,Food & Drink Shop,40.407955207786294,-3.6974941796648015,AhorraMas,Embajadores
42,Calle Magdalena,Food & Drink Shop,40.41308513432401,-3.7023397365943054,Supermercado Bao,Embajadores
43,"Calle Almadén, 18",Food & Drink Shop,40.41100905362397,-3.6940603961799074,Be Hoppy Cervezas Especiales,Embajadores
44,"Calle del Dr Cortezo, 10",Food & Drink Shop,40.41305632401305,-3.703942724337594,Yatai Market,Embajadores
45,,Food & Drink Shop,40.407795,-3.697084,Asaltodemata,Embajadores
46,Plaza del Angel,Food & Drink Shop,40.41450639468142,-3.7030859905645452,Restaurante Chino Plaza Del Angel,Embajadores
47,Fucar 24,Food & Drink Shop,40.41070545799559,-3.695713753661805,Hiper Cibeles,Embajadores
0,,Clothing Store,40.410426,-3.700885,La Positiva: Concept Store,Embajadores
1,"Calle de los Tres Peces, 23",Clothing Store,40.41095,-3.698827,KLING Showroom,Embajadores
2,Calle Atocha 79,Clothing Store,40.41185291566897,-3.6982747554564392,Nuez,Embajadores
3,Calle del Doctor Fourquet 10,Clothing Store,40.4078445851302,-3.6959015134158903,Cristina Guisado,Embajadores
4,León 11,Clothing Store,40.413747507046125,-3.698765272390122,Adhoc,Embajadores
5,Atocha 62,Clothing Store,40.4117435727921,-3.6980121574360907,Koko,Embajadores
6,Leon,Clothing Store,40.413106,-3.699191,Sastrería Ankar,Embajadores
7,San Pedro 10,Clothing Store,40.411844,-3.694784,The Concrete,Embajadores
8,Calle Cervantes 3,Clothing Store,40.41447,-3.698284,Ulises Merida,Embajadores
9,,Clothing Store,40.4146,-3.702317,Lòe,Embajadores
10,,Clothing Store,40.41402340410247,-3.7002368517210478,Ojalá,Embajadores
11,Plaza del Angel,Clothing Store,40.414396,-3.702246,Dear Tee,Embajadores
12,"Plaza Del Angel, 13",Clothing Store,40.414391,-3.702411,Socks Market,Embajadores
13,Calle de Moratín 23,Clothing Store,40.412904,-3.697101,PekesiPekas,Embajadores
14,"Huertas, 17",Clothing Store,40.413874,-3.699749,The Corner,Embajadores
15,"Huertas,5",Clothing Store,40.414081317011494,-3.70111387389546,Ojala,Embajadores
16,,Clothing Store,40.414509,-3.699482,Nud,Embajadores
17,"Argumosa, 7",Clothing Store,40.40770634411108,-3.699671998028438,La Tiendina,Embajadores
18,,Clothing Store,40.414355464251116,-3.698864367297499,Ropa Floristería,Embajadores
19,,Clothing Store,40.413585,-3.698462,peseta,Embajadores
20,,Clothing Store,40.40918,-3.702713,daniel chong,Embajadores
21,"Calle León, 17",Clothing Store,40.413656,-3.698996,Don Flamenco,Embajadores
22,,Clothing Store,40.411715,-3.699324,vestuario flamenco Lola Almela,Embajadores
23,Calle León,Clothing Store,40.413244,-3.69923,la ventinueve,Embajadores
24,,Clothing Store,40.410535,-3.695419,fedora,Embajadores
25,"C. Espoz y Mina, 13",Clothing Store,40.41482282209697,-3.702407137711709,Carhartt,Embajadores
26,CalleAmparo 51,Clothing Store,40.409044,-3.702652,Wanderer,Embajadores
27,,Clothing Store,40.412244516143964,-3.7022485748533827,Vivante,Embajadores
28,,Clothing Store,40.414445,-3.702314,Les Jardins,Embajadores
29,"Calle de Atocha, 58, 28012 Madrid",Clothing Store,40.41309720626644,-3.699825597969843,Likes,Embajadores
30,"calle de Moratín, 18",Clothing Store,40.4123769173288,-3.6966727674007416,L'Atelier Óptica,Embajadores
31,,Clothing Store,40.412645,-3.705199,Quintana,Embajadores
32,Argumosa 31,Clothing Store,40.40791830110077,-3.697174825680169,Reparación De Calzado Ol-Mar,Embajadores
33,,Clothing Store,40.415073,-3.702376,Chica & Chico,Embajadores
34,,Clothing Store,40.413882023030745,-3.702615252217095,herself,Embajadores
35,Conde de Romanones 16,Clothing Store,40.412646,-3.70499,La Maga del Textil,Embajadores
36,,Clothing Store,40.411229,-3.693776,The Code Market,Embajadores
37,,Clothing Store,40.412296295166016,-3.7040040493011475,Cumulo,Embajadores
38,Calle De La Verónica 15,Clothing Store,40.41166641693759,-3.6938850883515553,Pinar.Shop,Embajadores
39,,Clothing Store,40.414460079839714,-3.6987008608043914,Brico-pin,Embajadores
40,,Clothing Store,40.414358,-3.698664,El Ganso Vintage,Embajadores
41,Moratín,Clothing Store,40.41245111684294,-3.694994855345881,La Romería,Embajadores
42,"Echegaray, 32",Clothing Store,40.414038,-3.699506,RUMJungle Echegaray,Embajadores
43,,Clothing Store,40.4137547388773,-3.695728107610267,A Gatas,Embajadores
44,,Clothing Store,40.41199441536731,-3.705875824512825,Nancy,Embajadores
45,Calle Ferrocarril 35,Clothing Store,40.4067065562646,-3.697700014392271,Esparta,Embajadores
0,"['Madrid Madrid', 'España']",Bus Stop,40.40597856070702,-3.6993945283483534,parada EMT#84,Embajadores
1,['España'],Bus Stop,40.410099029541016,-3.6989219188690186,Imprimiendo,Embajadores
0,"C. Atocha, 52",Metro Station,40.41192762537371,-3.6980581283569336,Metro Antón Martín,Embajadores
1,"C. Argumosa, 1",Metro Station,40.40839970637966,-3.7007423219895803,Metro Lavapiés,Embajadores
2,"Pl. de Tirso de Molina, 1",Metro Station,40.41238561913413,-3.7049683207761896,Metro Tirso de Molina,Embajadores
3,Avda. Ensanche de Vallecas,Metro Station,40.41163055782746,-3.697348236444532,Metro Las Suertes,Embajadores
4,,Metro Station,40.40992829279583,-3.7024033953240454,Metro Madrid Línea 3,Embajadores
0,"Calle Ave Maria, 32",Arts & Entertainment,40.41041694030097,-3.7009325008063736,Liber Arte Cantina Cultural,Embajadores
1,"C. Santa Isabel, 3",Arts & Entertainment,40.41183256074677,-3.6992668712271692,Cine Doré,Embajadores
2,"C/ Santa Isabel,3",Arts & Entertainment,40.4115945871434,-3.698702234890164,Academia Flamenco Amor de Dios,Embajadores
3,"Zurita, 20",Arts & Entertainment,40.409666440324926,-3.699222340056091,Teatro Del Barrio,Embajadores
4,"c/ Zurita, 39",Arts & Entertainment,40.40907251524934,-3.6996981418710764,LA HUELGA en Lavapiés,Embajadores
5,"C. Olmo, 2",Arts & Entertainment,40.41153006215496,-3.7016618966301484,Candela,Embajadores
6,C/ Cabeza 33,Arts & Entertainment,40.4119769782937,-3.7011140218763385,Club 33,Embajadores
7,"C. Ave María, 35",Arts & Entertainment,40.409886956810595,-3.700965445274594,Olivia Rock and Roll Café,Embajadores
8,"C. Lavapiés, 37",Arts & Entertainment,40.409717437734514,-3.7021762805571186,Sala El Juglar,Embajadores
9,Pl. de Lavapiés,Arts & Entertainment,40.40893281783678,-3.7013825542138097,Fratelli d' Italia,Embajadores
10,Pza. de Lavapiés,Arts & Entertainment,40.408331122422815,-3.700644399633938,Teatro Valle-Inclán,Embajadores
11,Pl. de Tirso de Molina,Arts & Entertainment,40.41241254999066,-3.7044835037247728,Plaza de Tirso de Molina,Embajadores
12,"Calle Cañizares, 10",Arts & Entertainment,40.413140512239224,-3.7023295739994797,Fundacion Conservatorio Casa Patas,Embajadores
13,,Arts & Entertainment,40.408379539369236,-3.700773828090938,Centro Dramatico Nacional,Embajadores
14,Pl. de Santa Ana,Arts & Entertainment,40.41463076310542,-3.7010325869307574,Plaza de Santa Ana,Embajadores
15,Calle de la Cruz 26,Arts & Entertainment,40.414361726253105,-3.7014706330268736,essential Flamenco,Embajadores
16,"Calle De Embajadores, 51",Arts & Entertainment,40.406687771067205,-3.702942291025837,"Sala La Fragua, Tabacalera Promocion Del Arte",Embajadores
17,"C. del Doctor Fourquet 28, bajo",Arts & Entertainment,40.40694260489356,-3.696535688281007,Galería Fúcares,Embajadores
18,,Arts & Entertainment,40.412973,-3.693087,Medio Maraton Madrid,Embajadores
19,"C/ Lope de Vega, 31",Arts & Entertainment,40.413822,-3.696382,Galería Modus Operandi,Embajadores
20,San Pedro,Arts & Entertainment,40.412634855730566,-3.6947013995568923,"El estudio, Escuela de arte",Embajadores
21,Calle San Cayetano 8,Arts & Entertainment,40.409264,-3.7066402,The Makers Madrid,Embajadores
22,"Calle de la Encomienda, 12",Arts & Entertainment,40.410669591940824,-3.7058687210083003,Brainbreak,Embajadores
23,C. Atocha,Arts & Entertainment,40.41048331724376,-3.6952271609049983,Azucar,Embajadores
24,,Arts & Entertainment,40.41202926635742,-3.704800605773926,Centro Madrid,Embajadores
25,"C. Doctor Cortezo, 6",Arts & Entertainment,40.41377463619878,-3.7037453431400222,Yelmo Cines Ideal,Embajadores
26,Doctor Cortezo 1,Arts & Entertainment,40.413803,-3.7036116,Icon Stage,Embajadores
27,"C. Esgrima,11",Arts & Entertainment,40.41096689168601,-3.704454419204999,Centro el Horno,Embajadores
28,"Pl. de Santa Ana, 1-5",Arts & Entertainment,40.41506441431169,-3.701594012866238,Tablao Villa Rosa,Embajadores
29,"Pl. del Ángel, 10",Arts & Entertainment,40.414342867121555,-3.701595920462117,Café Central Madrid,Embajadores
30,"C. Príncipe, 25",Arts & Entertainment,40.41472295273593,-3.7006151566523107,Teatro Español,Embajadores
31,"C. Embajadores, 9",Arts & Entertainment,40.410001840156795,-3.7062980491013597,Teatro Pavón,Embajadores
32,"C. Cañizares, 10",Arts & Entertainment,40.41267737917284,-3.7017365524042884,Casa Patas,Embajadores
33,"P. del Prado, 36",Arts & Entertainment,40.41101269430034,-3.693176507949829,CaixaForum Madrid,Embajadores
34,"C. Echegaray, 15",Arts & Entertainment,40.41541506713712,-3.6995539657944128,Cardamomo,Embajadores
35,C. Atocha 18,Arts & Entertainment,40.4141564664728,-3.7034413966834525,Teatro Calderón,Embajadores
36,"Pl. Tirso de Molina, 1",Arts & Entertainment,40.41213360883529,-3.7032615723862135,Teatro Nuevo Apolo,Embajadores
37,"C. Miguel Servet, 21",Arts & Entertainment,40.40595337214276,-3.70187059849157,Swinton & Grant,Embajadores
38,"C. Huertas, 57",Arts & Entertainment,40.41320930895101,-3.6964351529079273,Café-Concierto La Fídula,Embajadores
39,"C. Ronda de Valencia, 2",Arts & Entertainment,40.405996939819225,-3.6999129806319777,La Casa Encendida,Embajadores
40,Principe 20 A,Arts & Entertainment,40.41518443796841,-3.700414345939654,Planet Club,Embajadores
41,"C. de Cervantes, 11",Arts & Entertainment,40.41432648950357,-3.6974677331399093,Casa Museo Lope de Vega,Embajadores
42,,Arts & Entertainment,40.409746,-3.706228,El Pavón Teatro Kamikaze,Embajadores
43,"C. Moratín, 35",Arts & Entertainment,40.412610286054615,-3.6958377757918495,Jazz Bar,Embajadores
44,"C. Miguel Servet, 15",Arts & Entertainment,40.40646464242617,-3.701418145135369,Taberna Alabanda,Embajadores
45,Museo Reina Sofia,Arts & Entertainment,40.40847971742021,-3.6940337164476733,Piedad y Terror en Picasso,Embajadores
46,Rda de Atocha 35,Arts & Entertainment,40.40564814773116,-3.6983798611933194,Teatro Circo Price,Embajadores
47,"C. Doctor Cortezo, 5",Arts & Entertainment,40.413486227897295,-3.703547909044701,Teatro Fígaro Adolfo Marsillach,Embajadores
48,"C/ Echegaray, 18",Arts & Entertainment,40.41527285683364,-3.69962223895046,Sol & Sombra,Embajadores
49,"C. Lavapiés, 11",Arts & Entertainment,40.411365291035445,-3.7029080037262725,La Escalera de Jacob,Embajadores
0,,Park,40.40743,-3.6984048,Esto es una plaza,Embajadores
1,,Park,40.407596407592784,-3.703928375375809,Parque Sur,Embajadores
2,Paseo de Santa Maria de la Cabeza,Park,40.407536200627455,-3.6948264070026453,Parque,Embajadores
0,"Calle Atocha, 56",Athletics & Sports,40.412005,-3.698799,A Yoga,Embajadores
1,,Athletics & Sports,40.41183844188649,-3.6983887135119478,Asociación Española De Tao Yin,Embajadores
2,Plaza de Antón Martín,Athletics & Sports,40.412709298755416,-3.6977991072134295,SogoGym,Embajadores
3,Lavapies 10,Athletics & Sports,40.410243,-3.702504,Estima,Embajadores
4,Ronda de Valencia,Athletics & Sports,40.40527554456864,-3.702455632112476,Viva Gym Embajadores,Embajadores
5,"C. Atocha, 24",Athletics & Sports,40.413634575938765,-3.7023001389780696,Basic-Fit,Embajadores
6,"C. Esgrima,11",Athletics & Sports,40.41096689168601,-3.704454419204999,Centro el Horno,Embajadores
7,,Athletics & Sports,40.41017532348633,-3.6989963054656982,sweetfloor,Embajadores
8,"Calle de Atocha, 49",Athletics & Sports,40.413065,-3.700343,Axel Wellness,Embajadores
9,Lavapies,Athletics & Sports,40.40761456676706,-3.6971924762492026,Gym Corpore,Embajadores
10,,Athletics & Sports,40.406177137427626,-3.702531015290405,España,Embajadores
11,Plaza del Angel,Athletics & Sports,40.414382390474,-3.701874586944422,Palacio Santa Ana,Embajadores
12,Juanelo,Athletics & Sports,40.41465307630052,-3.7022944094471413,Ashtanga Yoga,Embajadores
13,,Athletics & Sports,40.414633450924796,-3.7011089189252298,ME Madrid Fitness Center,Embajadores
14,"Calle de Mira el Sol, 1",Athletics & Sports,40.407678,-3.704506,Yogaconmigo - Centro de Yoga,Embajadores
15,"C. de la Cruz, 28",Athletics & Sports,40.41472198611652,-3.702877874164478,Masvitalzenter,Embajadores
16,"Calle de Relatores, 3, 28012 Madrid",Athletics & Sports,40.41414774054506,-3.703363480483436,Alma Pilates,Embajadores
17,,Athletics & Sports,40.411103,-3.705984,Fit Now,Embajadores
18,,Athletics & Sports,40.413108,-3.700931,Gym Hotel Catalonia Plaza Mayor,Embajadores
19,,Athletics & Sports,40.409924,-3.693599,Fitness hotel paseo del arte,Embajadores
20,,Athletics & Sports,40.415145,-3.696625,Fitness Center At Doubletree Hilton Prado,Embajadores
21,moratines 18-20,Athletics & Sports,40.4088195603308,-3.703026528636981,Bodhidharma,Embajadores
22,,Athletics & Sports,40.411484,-3.704028,RWB HQ Madrid,Embajadores
23,,Athletics & Sports,40.407927,-3.69987,Peña Atlética Mediodía,Embajadores
24,Glorieta Embajadores,Athletics & Sports,40.40566661052981,-3.700420182783519,Mini Rampa Tabacalera,Embajadores
25,Sombrerería 21,Athletics & Sports,40.40752913351049,-3.6982747554564392,Stadium Gimnasio,Embajadores
0,,School,40.41007,-3.697326,El Molino,Embajadores
1,C/ San Ildefonso 18,School,40.41059166057348,-3.696475614810533,Colegio Internacional SEK-Santa Isabel,Embajadores
2,Olmo 4,School,40.41152953988777,-3.7013219830831634,Colegio Antonio Moreno Rosales,Embajadores
3,Ronda de Atocha 27,School,40.40592823665426,-3.696738824098473,Colegio Salesianos de Atocha,Embajadores
4,,School,40.4078868911733,-3.70287787412367,Centro Asociado De Madrid Escuelas Pias,Embajadores
5,,School,40.4109443,-3.6927752,C.P. Palacio Valdes,Embajadores
6,Paseo Del Prado 38,School,40.41130802703326,-3.693394618732933,C. P. Palacio Valdés,Embajadores
7,,School,40.41312,-3.702308,Tilde - cursos de español,Embajadores
8,,School,40.41398354225384,-3.703041394112323,Academia Holandesa,Embajadores
9,,School,40.41298568612376,-3.702179203759064,Alarde Danza,Embajadores
10,Atocha 28,School,40.41342563680862,-3.7019314506269403,Academia Jurispericia,Embajadores
11,Calle Del Casino 7,School,40.40821587748829,-3.704978898428636,Colegio Público santa María,Embajadores
0,Argumosa 3,University,40.40840408942687,-3.70057632604178,Centro Asociado Gregorio Marañón UNED,Embajadores
0,,Bank,40.412481735926185,-3.7011634236244384,Bankia,Embajadores
1,"Calle de Santa Isabel, 10, 28012 Madrid",Bank,40.41201619582915,-3.6985026718241096,Banco Popular,Embajadores
2,,Bank,40.41263693414498,-3.6996967721810012,Banco Santander,Embajadores
3,"Glorieta Embajadores, 7",Bank,40.40646418734695,-3.6992855228188604,BBVA Oficina,Embajadores
4,"Atocha, 59 (Pl.De Anton Martin)",Bank,40.41370350025386,-3.6993598447453175,BBVA Oficina,Embajadores
5,,Bank,40.4106953668667,-3.6960154661260787,La Caixa,Embajadores
6,"Ronda de valencia, 5",Bank,40.40569352983221,-3.700309253831476,Ing Nationale-Nederlanden,Embajadores
7,,Bank,40.41510535200908,-3.699037783852375,BBVA Plaza Puerta Del Sol,Embajadores
8,,Bank,40.410125732421875,-3.6989221572875977,muralla en cordoba,Embajadores
9,"Argumosa, 1",Bank,40.40823863277976,-3.700687748228814,BBVA Oficina,Embajadores
10,"Calle Atocha, 55",Bank,40.412994,-3.699909,Banco Santander,Embajadores
11,Duque de Alba 7,Bank,40.411845935605044,-3.70589017868042,Cajero Bankinter,Embajadores
12,"C. de Argumosa, 3",Bank,40.40839767456055,-3.7001659870147705,Banco Santander,Embajadores
13,,Bank,40.407744300000005,-3.7019873666666663,Bankia,Embajadores
14,"Pl. Tirso Molina, 20",Bank,40.41252951852886,-3.7032841974942428,BBVA Oficina,Embajadores
15,,Bank,40.40879398199593,-3.6943408825635693,Banco Santander,Embajadores
16,Argumosa 37,Bank,40.40768,-3.696767,Bankia,Embajadores
17,Embajadores 78,Bank,40.40527136296972,-3.702397227518511,Banco Popular,Embajadores
18,"Mayor, 9",Bank,40.41470515567419,-3.703477449997956,Banco de Santander,Embajadores
19,Plaza Tirso Molina,Bank,40.413026143099884,-3.702501284643868,Bbva,Embajadores
20,Embajadores,Bank,40.40605131176656,-3.6992954324027476,Bankia,Embajadores
21,,Bank,40.411918102514214,-3.705464524943568,Bankinter,Embajadores
22,,Bank,40.40806000718597,-3.6984977171095488,Ibercaja,Embajadores
23,,Bank,40.41320353187204,-3.7017183839032715,Banesto,Embajadores
24,Huertas,Bank,40.413356361093534,-3.6951831218050555,Bankia Calle Huertas,Embajadores
25,Av. Monforte de Lemos 36,Bank,40.41493535041692,-3.7008905410765527,Bankia,Embajadores
0,León 13,Pharmacy,40.41392362320359,-3.6989832814425165,Farmacia Leon,Embajadores
1,Calle La Fe,Pharmacy,40.408532,-3.699824,Herbolario El Druida,Embajadores
2,C/ Lavapies 56,Pharmacy,40.40892905635932,-3.7009800898695344,Farmacia Lavapies,Embajadores
3,,Pharmacy,40.40934664538933,-3.6994539860088653,Farmacia de la Fe,Embajadores
4,Plaza Del Angel,Pharmacy,40.41426641702081,-3.7024319132031933,Farmacia Plaza Del Angel,Embajadores
5,"Calle de las Huertas, 17",Pharmacy,40.414037614499634,-3.7000931602714893,Farmácia Huertas,Embajadores
6,"Calle de la Magdalena, 33, 28012 Madrid",Pharmacy,40.41077438840388,-3.6980121574360907,Farmacia Rosario Piñol Santaeularia,Embajadores
7,"C. Mesón de Paredes, 85",Pharmacy,40.40695952132906,-3.701208018421995,Farmacia,Embajadores
8,"Ronda de Atocha, 24",Pharmacy,40.406356155914175,-3.6980795860290523,Farmacia Bonnin,Embajadores
9,C. Mesón de Paredes,Pharmacy,40.41042732753617,-3.7045230083885947,Farmacia Mesón de Paredes,Embajadores
10,"Calle Gobernador, 87",Pharmacy,40.41155185161675,-3.6940455436706543,Farmacia Mustieles,Embajadores
11,Atocha 114,Pharmacy,40.409587,-3.693117,Farmacia Atocha,Embajadores
12,"Calle Príncipe, 15",Pharmacy,40.415338,-3.700417,Farmacia Lda. M. Cabrera Junquera,Embajadores
13,Atocha 114,Pharmacy,40.409925,-3.693502,Farmacia Echarri,Embajadores
14,Carretas 31,Pharmacy,40.41436562064305,-3.7035270020408277,Ortopedia Galean,Embajadores
15,"Argumosa, 19",Pharmacy,40.40773812205151,-3.6986463587574305,Farmacia Argumosa 19,Embajadores
16,calle Embajadores,Pharmacy,40.407131,-3.70404,Farmacia Jose Pérez-Monte,Embajadores
17,,Pharmacy,40.41383249004402,-3.7001327992513056,Farmacia Principe,Embajadores
18,Calle Atocha,Pharmacy,40.41318600493502,-3.7020255966742863,Abraham,Embajadores
19,,Pharmacy,40.407432,-3.695606,Farmacia Victoria Eugenia Lopez Ormazabal,Embajadores
0,Calle De Jovellanos 7,Food,40.416837,-3.696668,Edelweiss,Cortes
1,"Pl. de las Cortes, 4",Food,40.41566655165754,-3.6957120017562426,Faborit,Cortes
2,"Plaza de las Cortes, 4",Food,40.41569789176763,-3.6958622200767075,100 Montaditos,Cortes
3,"Pl. Cánovas del Castillo, 5",Food,40.41532327347708,-3.6949486687744146,Starbucks,Cortes
4,"Pl. de Cánovas del Castillo, 5",Food,40.414974582911455,-3.6949574947357173,VIPS Neptuno,Cortes
5,"C. Santa Catalina, 3",Food,40.4158025189281,-3.697742684114137,El Rincon de Esteban,Cortes
6,Plaza Del Angel 2,Food,40.414465,-3.702782,Mistura Ice Cream,Cortes
7,"Carrera de San Jerónimo, 6",Food,40.41665890338383,-3.7015152430287395,Museo del Jamón,Cortes
8,"C. Alcalá, 21",Food,40.418038185194774,-3.699371513099982,Starbucks Alcalá 21,Cortes
9,"Pl. de Jesús, 7",Food,40.41424917795828,-3.6956805516466575,Cervecería Cervantes,Cortes
10,Plaza Santa Ana 9.,Food,40.41439534091891,-3.7007070166736185,Five Guys,Cortes
11,"C. Huertas, 19",Food,40.413759722199444,-3.6994574585588165,Alimentación Quiroga,Cortes
12,"C. Gran Vía, 12",Food,40.419531818561246,-3.6988707977016086,Mercado de la Reina,Cortes
13,"Gran Vía, 1",Food,40.41918268290716,-3.697793514240437,La Primera,Cortes
14,"C/ Espoz y Mina, 4",Food,40.41642972263389,-3.7022844736145575,Serafina,Cortes
15,"C. Infantas, 30",Food,40.420206995804506,-3.6979471668178476,Sidrería El Tigre,Cortes
16,"C. Montera, 47",Food,40.419985906291124,-3.70172862249446,McDonald's,Cortes
17,"C. Ventura de la Vega, 10",Food,40.415696026060175,-3.6989742057930957,La Cabaña Argentina,Cortes
18,"C. Victoria, 12",Food,40.4158078467863,-3.701593251107847,La Casa del Abuelo,Cortes
19,"Pza. del Rey, 4",Food,40.42022814465515,-3.695931722731058,Revoltosa,Cortes
20,"C. Atocha, 20",Food,40.41385383986997,-3.7028908043886357,La Rollerie,Cortes
21,Carrera San Jeronimo,Food,40.41651129054518,-3.6995932169882693,La Rollerie,Cortes
22,"Pl. Cánovas del Castillo, 4",Food,40.41492316164693,-3.6945156911689665,Estado Puro,Cortes
23,"C. Montera, 33",Food,40.418986412410625,-3.7020409228183353,Dunkin' Coffee,Cortes
24,"C. Gran Vía, 30",Food,40.42014039388448,-3.702886033408268,Starbucks Gran Vía 30,Cortes
25,"Costanilla de los Desamparados, 13",Food,40.41213451312291,-3.696623656621767,Plenti,Cortes
26,"C. de la Reina, 29",Food,40.41990689012166,-3.6987179885049537,La Barraca,Cortes
27,"C. de la Montera, 34",Food,40.41902074311367,-3.7019968419960936,100 Montaditos,Cortes
28,"C. Cádiz, 9",Food,40.415766581101096,-3.702643769694344,Taberna Malaspina,Cortes
29,"C. Montera, 47",Food,40.41969,-3.701869,Tapa Tapa,Cortes
30,"C. del Prado, 16",Food,40.41483704752955,-3.6985914897741425,Lamucca de Prado,Cortes
31,"C. Montera, 10",Food,40.41765269969506,-3.7027806159102346,Café&Tapas,Cortes
32,"C. Huertas, 18",Food,40.413808,-3.700124,Casa Alberto,Cortes
33,"Calle de Álvarez Gato, 4",Food,40.41502338061646,-3.7018643661445174,InClan Brutal Bar,Cortes
34,Paseo Del Prado,Food,40.413800864783454,-3.69173061903244,Café Prado,Cortes
35,Gran Via,Food,40.419743676076244,-3.699453236195434,Steakburger Bar (Gran Via),Cortes
36,"C. Huertas, 74",Food,40.41292121965939,-3.695151714817362,Los Rotos,Cortes
37,"C. Victoria, 9",Food,40.41598856760646,-3.701659335545549,Taberna La Alhambra,Cortes
38,"Calle Gran Via, 6",Food,40.41924524133954,-3.6978500877927485,Ôven Mozzarella Bar,Cortes
39,"Pl. de Santa Ana, 12",Food,40.41457050395633,-3.701133477680609,Lateral,Cortes
40,"C. Príncipe, 18",Food,40.41522733329538,-3.7003301939982185,100 Montaditos,Cortes
41,"C. Montera, 37 - 4ª Planta",Food,40.419106710663684,-3.7023069232360086,El Jardín Secreto de SB,Cortes
42,"C. Libertad, 21",Food,40.421289934462294,-3.697392702478642,Bazaar,Cortes
43,"C. Libertad, 1",Food,40.42022173012748,-3.6974001583264156,Celso y Manolo,Cortes
44,"Carrera de San Jerónimo, 3",Food,40.416697729325435,-3.7016824585888597,Bacoa,Cortes
45,"Calle de La Victoria, 2, (Junto a Puerta del Sol)",Food,40.416506381,-3.70170887,La Pulpería de Victoria,Cortes
46,"C. Montera, 22",Food,40.41821101037879,-3.7025389160978333,Ciudad De Tui,Cortes
47,"Pl. de Jesús, 4",Food,40.413811807653936,-3.6956569729216513,La Dolores,Cortes
48,"P. del Prado, 26",Food,40.4121920882941,-3.693209850387824,Burger King,Cortes
49,"C. de la Reina, 41",Food,40.419647701387746,-3.697201837743589,Yakitoro,Cortes
0,,Food & Drink Shop,40.415007,-3.696945,Gamma Supermercado,Cortes
1,1 Calle Fucar,Food & Drink Shop,40.4124572,-3.695562999999993,Be Hoppy,Cortes
2,"Plaza del Ángel, 11",Food & Drink Shop,40.4142498,-3.7020185,Carrefour Express,Cortes
3,"Calle de Echegaray, 19",Food & Drink Shop,40.415061,-3.699514,Licores Cabello,Cortes
4,"C. Barquillo, 11",Food & Drink Shop,40.42108278124368,-3.69579746986119,El Botiquín,Cortes
5,"C. Principe, 11",Food & Drink Shop,40.41588008608725,-3.700320441850505,Carrefour Express,Cortes
6,,Food & Drink Shop,40.421361,-3.69873,Entre Santos,Cortes
7,Calle León,Food & Drink Shop,40.41439460966857,-3.6985838413238525,Carrefour Express,Cortes
8,C. Virgen de los Peligros 9,Food & Drink Shop,40.41892696764651,-3.699818892487905,Día & Go,Cortes
9,,Food & Drink Shop,40.421774,-3.697321,Veritas,Cortes
10,"Calle de la Montera, 25",Food & Drink Shop,40.419222121886904,-3.7021028995513916,KioskoCity 24hr,Cortes
11,"C. Huertas, 19",Food & Drink Shop,40.413759722199444,-3.6994574585588165,Alimentación Quiroga,Cortes
12,,Food & Drink Shop,40.414046,-3.698726,Vinos y Quesos,Cortes
13,San Pedro 8,Food & Drink Shop,40.41220032663458,-3.6949106311041473,Bodega Trigo,Cortes
14,Echegaray 17,Food & Drink Shop,40.41533808471944,-3.6995306611061096,Los Rosales,Cortes
15,Calle León,Food & Drink Shop,40.413247,-3.699193,Moega,Cortes
16,,Food & Drink Shop,40.41880522254288,-3.7020751472958597,El Rincón del Ibérico,Cortes
17,"León, 32",Food & Drink Shop,40.412784770280894,-3.699382880185818,Más Que Cervezas,Cortes
18,,Food & Drink Shop,40.415504455566406,-3.6995534896850586,Los Rodales,Cortes
19,"Plaza Matute, 11",Food & Drink Shop,40.41344817840071,-3.699840462505044,Supermercado Vecino,Cortes
20,Atocha,Food & Drink Shop,40.411864,-3.698547,Pannus,Cortes
21,"Calle de las Huertas, 72",Food & Drink Shop,40.413042,-3.695354,DIA Supermercado,Cortes
22,"Calle de la Montera, 32",Food & Drink Shop,40.41886381218386,-3.7020726230829775,Carrefour Express,Cortes
23,"C. Amor de Dios, 19",Food & Drink Shop,40.41221349695869,-3.6986107910103247,la Sirena,Cortes
24,Calle Fuencarral,Food & Drink Shop,40.415204772156194,-3.702263440100249,Bulev'Art,Cortes
25,Moratin 7,Food & Drink Shop,40.412229,-3.697725,Ultramarinos La Moderna,Cortes
26,,Food & Drink Shop,40.41515,-3.70122,www.lugardelvino.com,Cortes
27,calle Santa Isabel,Food & Drink Shop,40.411924,-3.699311,frutas doré,Cortes
28,"Calle Augusto Figueroa, 24",Food & Drink Shop,40.421003,-3.698205,Frutería 4hojas,Cortes
29,,Food & Drink Shop,40.411884,-3.6985345,La Consentida De Doré,Cortes
30,"Plaza San Ginés, 3",Food & Drink Shop,40.41693609806569,-3.7009156754646635,teterimundi,Cortes
31,"C. Santa Isabel, 5",Food & Drink Shop,40.41183878511134,-3.698695906070424,Orbayu,Cortes
32,Calle Magdalena,Food & Drink Shop,40.41308513432401,-3.7023397365943054,Supermercado Bao,Cortes
33,"Leon, 30",Food & Drink Shop,40.412699,-3.699352,Licorilandia,Cortes
34,C/ de las Infantas 21,Food & Drink Shop,40.42022735825182,-3.6981526141273418,DIA %,Cortes
35,"C. de Montalbán, 5",Food & Drink Shop,40.41821,-3.690871,Macario,Cortes
36,,Food & Drink Shop,40.413975082582986,-3.698269800764195,que rico to,Cortes
37,"Calle Principe, 9",Food & Drink Shop,40.415908,-3.700349,Carrefour Express,Cortes
38,"C. Santa Isabel, 1",Food & Drink Shop,40.412091004613536,-3.6994957923889156,Charcuteria La Leonesa,Cortes
39,"Lope de Vega, 1",Food & Drink Shop,40.41393307809359,-3.698701858520508,Secretos de León,Cortes
40,"Calle de Álvarez Gato, 9",Food & Drink Shop,40.41492998600006,-3.701518177986145,Chinos,Cortes
41,,Food & Drink Shop,40.41564017806305,-3.7012773881851877,Spar,Cortes
42,Calle Infantas 30,Food & Drink Shop,40.4208053325988,-3.6990427386198172,Don Fruta,Cortes
43,Calle Jardines 7,Food & Drink Shop,40.418925,-3.701303,JMB Alimentos,Cortes
44,"Colmenares, 13",Food & Drink Shop,40.42099581625526,-3.696654596953227,Alvacío,Cortes
45,"C. Bujaruelo, 21 6A",Food & Drink Shop,40.41674970239314,-3.7027936367599175,Gourmet y Delicatessen online,Cortes
46,"Plaza Vázquez De Mella, 11",Food & Drink Shop,40.42079037618636,-3.6990129947662354,De Soto Centro Dietético,Cortes
47,San Marcos 20,Food & Drink Shop,40.42150254770852,-3.698766268016585,Taste of America,Cortes
0,Plaza De Canalejas,Clothing Store,40.41659419293329,-3.7004157762556473,typographia,Cortes
1,,Clothing Store,40.41664534841284,-3.7002913554810566,Camiseria Canalejas,Cortes
2,,Clothing Store,40.414509,-3.699482,Nud,Cortes
3,,Clothing Store,40.414355464251116,-3.698864367297499,Ropa Floristería,Cortes
4,"Gran Via, 8",Clothing Store,40.41936413323757,-3.6982536485682607,Loewe Gran Via,Cortes
5,The Westin Palace Madrid,Clothing Store,40.41583581616247,-3.695574520107375,Loewe,Cortes
6,,Clothing Store,40.413585,-3.698462,peseta,Cortes
7,"Calle Gran Vía, 33",Clothing Store,40.419614,-3.698718,Punto Roma,Cortes
8,"C. Montera, 37",Clothing Store,40.419068386780246,-3.702090366521614,Salvador Bachiller,Cortes
9,Gran Vía (Metro Madrid) Madrid,Clothing Store,40.41982022972257,-3.701871990055688,Tienda Metro GranVía,Cortes
10,"Fuencarral, 4",Clothing Store,40.42026078592487,-3.7015675400795054,Foot Locker,Cortes
11,"Huertas, 17",Clothing Store,40.413874,-3.699749,The Corner,Cortes
12,,Clothing Store,40.4146,-3.702317,Lòe,Cortes
13,,Clothing Store,40.41402340410247,-3.7002368517210478,Ojalá,Cortes
14,Arenal 10,Clothing Store,40.41707293171189,-3.702734175175791,Desigual Arenal,Cortes
15,Plaza del Angel,Clothing Store,40.414396,-3.702246,Dear Tee,Cortes
16,"Plaza Del Angel, 13",Clothing Store,40.414391,-3.702411,Socks Market,Cortes
17,,Clothing Store,40.421613704001224,-3.699092286320937,Boxer Madrid,Cortes
18,Calle Fuencarral,Clothing Store,40.420464132202625,-3.701480543038644,HE by MANGO,Cortes
19,,Clothing Store,40.42054178681025,-3.70137006669159,Tezenis,Cortes
20,Calle del Clavel,Clothing Store,40.42,-3.699449,Eduardo Rivera,Cortes
21,"Alcalá, 28013 Madrid",Clothing Store,40.416699302600286,-3.701103963955486,Dándara,Cortes
22,Calle León,Clothing Store,40.413244,-3.69923,la ventinueve,Cortes
23,,Clothing Store,40.415585,-3.7002518,Appaloosa,Cortes
24,Gran Vía 27,Clothing Store,40.42006435073047,-3.702889723452054,Cortefiel,Cortes
25,,Clothing Store,40.421564,-3.699068,Fred Perry,Cortes
26,"CABALLERO DE GRACIA, Nº 14",Clothing Store,40.41947313918019,-3.699989108097194,GB BRAVO OUTLET,Cortes
27,Virgen de los peligros 11,Clothing Store,40.41899514359858,-3.6996967721810012,Flow,Cortes
28,Augusto figueroa,Clothing Store,40.42197419307548,-3.697140143598619,Junco,Cortes
29,Gran Via 25,Clothing Store,40.42009194285571,-3.702076972953914,Bershka,Cortes
30,Calle Pelayo,Clothing Store,40.421827,-3.699081,Chuppies Shop,Cortes
31,"C. Espoz y Mina, 13",Clothing Store,40.41482282209697,-3.702407137711709,Carhartt,Cortes
32,,Clothing Store,40.414445,-3.702314,Les Jardins,Cortes
33,,Clothing Store,40.41887618851528,-3.702342721490605,Montera Moda,Cortes
34,"Fuencarral, 2",Clothing Store,40.420108675739556,-3.7016201962528865,El Ganso (Fuencarral 2),Cortes
35,"calle de Moratín, 18",Clothing Store,40.4123769173288,-3.6966727674007416,L'Atelier Óptica,Cortes
36,Gran Vía 40,Clothing Store,40.42014017322591,-3.7016787436815504,Soloio,Cortes
37,,Clothing Store,40.414358,-3.698664,El Ganso Vintage,Cortes
38,,Clothing Store,40.420517,-3.700835,Kurla,Cortes
39,Marcelo Usera 123,Clothing Store,40.41993,-3.699652,Cadena Q,Cortes
40,"Echegaray, 32",Clothing Store,40.414038,-3.699506,RUMJungle Echegaray,Cortes
41,"Calle de las Infantas, 19",Clothing Store,40.420477243770776,-3.698345385185658,Isolée,Cortes
42,c/ Gran Vía 30,Clothing Store,40.4201620133566,-3.7022198058380904,Sfera,Cortes
43,"Gran Vía, 30",Clothing Store,40.42038752958924,-3.7026523435154113,Stradivarius,Cortes
44,Montalban 5,Clothing Store,40.418119,-3.691235,Infashion,Cortes
45,,Clothing Store,40.415073,-3.702376,Chica & Chico,Cortes
46,"calle barquillo, 9, 1D",Clothing Store,40.420275,-3.695824,Fringomania Showroom,Cortes
47,Gran vía,Clothing Store,40.41977433302769,-3.700036512862739,New Balance,Cortes
48,,Clothing Store,40.42014235163153,-3.7004746867409763,Replica,Cortes
49,"Calle de la Montera, 47",Clothing Store,40.41935860145424,-3.7019690072328513,Vans,Cortes
0,,Bus Stop,40.418003,-3.698527,Parada 5907,Cortes
1,,Bus Stop,40.419857025146484,-3.692816734313965,"Parada EMT 73 - Líneas 5, 14, 27, 150, N23, N26",Cortes
2,Plaza de Cibeles,Bus Stop,40.41920188607443,-3.6936324215904364,Parada EMT 74,Cortes
3,,Bus Stop,40.416748,-3.7003682,Parada EMT 3691,Cortes
4,Plaza Cibeles,Bus Stop,40.41909145723935,-3.6931023209189684,Parada EMT 3655,Cortes
5,C. Gran Vía 14,Bus Stop,40.419777,-3.69926,Parada EMT 5138,Cortes
6,,Bus Stop,40.419514,-3.6934597,Parada Emt 69,Cortes
7,Plaza De Cibeles,Bus Stop,40.419132,-3.6935918,Buho N10,Cortes
0,C. Alcalá 48,Metro Station,40.41906508541828,-3.694330973950071,Metro Banco de España,Cortes
1,"C. Alcalá, 18",Metro Station,40.41789417619993,-3.6994047652313466,Metro Sevilla,Cortes
2,"C. Gran Vía, 28",Metro Station,40.420020065824396,-3.7017938283759775,Metro Gran Vía,Cortes
3,,Metro Station,40.4188661,-3.6957962,Banco,Cortes
4,"C. Atocha, 52",Metro Station,40.41192762537371,-3.6980581283569336,Metro Antón Martín,Cortes
5,,Metro Station,40.418879,-3.695655,Lineas 2 y 4 Del Metro,Cortes
0,Pl. de las Cortes,Arts & Entertainment,40.41577337519694,-3.696093259487371,Plaza de las Cortes,Cortes
1,"Calle de Jovellanos, 4",Arts & Entertainment,40.41718415347722,-3.6970549821853633,Teatro de La Zarzuela,Cortes
2,"C. Alcalá, 42",Arts & Entertainment,40.41848647958846,-3.6966117471456528,Círculo de Bellas Artes,Cortes
3,,Arts & Entertainment,40.416738165447775,-3.6949304485601755,Las Terrazas Del Thyssen,Cortes
4,"C. Zorrilla, 3",Arts & Entertainment,40.41675824455859,-3.697747599669781,Museo Colecciones ICO,Cortes
5,"P. del Prado, 8",Arts & Entertainment,40.41635928605382,-3.6948908136558845,Museo Thyssen-Bornemisza,Cortes
6,Marques de Casa Riera 2,Arts & Entertainment,40.41850384119215,-3.6964242916413768,Cine Estudio del Círculo de Bellas Artes,Cortes
7,,Arts & Entertainment,40.413465,-3.691869,Museo Del Prado 1819-2019: Un Lugar de Memoria,Cortes
8,"C. Alcalá, 20",Arts & Entertainment,40.41752248887143,-3.698776387172838,Teatro Alcázar,Cortes
9,"C. de Ruiz de Alarcón, 23",Arts & Entertainment,40.41450101818921,-3.692577179937514,Museo Nacional del Prado,Cortes
10,"C. Marqués de Casa Riera, 2",Arts & Entertainment,40.418394198060604,-3.696313795434716,Teatro Bellas Artes,Cortes
11,"C/ Alcalá, 31",Arts & Entertainment,40.41829484495374,-3.698258430525733,Sala de Exposiciones Alcalá 31,Cortes
12,Pl. de Cibeles,Arts & Entertainment,40.419369123947654,-3.693196450539067,Plaza de Cibeles,Cortes
13,"Calle Cañizares, 10",Arts & Entertainment,40.413140512239224,-3.7023295739994797,Fundacion Conservatorio Casa Patas,Cortes
14,"C. Moreto, 4",Arts & Entertainment,40.414498823720095,-3.6915469557112046,Claustro de San Jerónimo el Real,Cortes
15,"P. del Prado, 5",Arts & Entertainment,40.417720632890976,-3.693210910420808,Museo Naval de Madrid,Cortes
16,"C. Santa Isabel, 3",Arts & Entertainment,40.41183256074677,-3.6992668712271692,Cine Doré,Cortes
17,Pl. de Santa Ana,Arts & Entertainment,40.41463076310542,-3.7010325869307574,Plaza de Santa Ana,Cortes
18,,Arts & Entertainment,40.412973,-3.693087,Medio Maraton Madrid,Cortes
19,Calle de la Cruz 26,Arts & Entertainment,40.414361726253105,-3.7014706330268736,essential Flamenco,Cortes
20,"Carrera de San Jerónimo, 30",Arts & Entertainment,40.41664516080992,-3.699234011794245,Casa Mira,Cortes
21,,Arts & Entertainment,40.415863465978326,-3.6903775920606856,Salón de Reinos,Cortes
22,San Pedro,Arts & Entertainment,40.412634855730566,-3.6947013995568923,"El estudio, Escuela de arte",Cortes
23,"C. de Cervantes, 11",Arts & Entertainment,40.41432648950357,-3.6974677331399093,Casa Museo Lope de Vega,Cortes
24,"C. de Alcalá, 49",Arts & Entertainment,40.41914443693692,-3.695468048720649,Instituto Cervantes,Cortes
25,"Calle Alcalá, 20",Arts & Entertainment,40.41802315873684,-3.6991697316904735,Mondo Disko,Cortes
26,"C. de Alcalá, 13",Arts & Entertainment,40.41754587205401,-3.700352438856103,Real Academia de Bellas Artes de San Fernando,Cortes
27,"Pl. de Santa Ana, 1-5",Arts & Entertainment,40.41506441431169,-3.701594012866238,Tablao Villa Rosa,Cortes
28,"C. Huertas, 57",Arts & Entertainment,40.41320930895101,-3.6964351529079273,Café-Concierto La Fídula,Cortes
29,"C. Cervantes, 42",Arts & Entertainment,40.41447672947557,-3.6950916779890894,Palacio de Neptuno,Cortes
30,"C/ Lope de Vega, 31",Arts & Entertainment,40.413822,-3.696382,Galería Modus Operandi,Cortes
31,"C. Echegaray, 15",Arts & Entertainment,40.41541506713712,-3.6995539657944128,Cardamomo,Cortes
32,Principe 20 A,Arts & Entertainment,40.41518443796841,-3.700414345939654,Planet Club,Cortes
33,"C. Fuencarral, 3",Arts & Entertainment,40.42039156250055,-3.701617355170416,Espacio Fundación Telefónica,Cortes
34,Pl. de Cibeles 1,Arts & Entertainment,40.41921356178328,-3.692505520792445,CentroCentro Cibeles de Cultura y Ciudadanía,Cortes
35,"Plaza de Cibeles, 28014 Madrid",Arts & Entertainment,40.418905058727546,-3.6921587872502037,Mirador del Palacio de Cibeles,Cortes
36,"C. Príncipe, 25",Arts & Entertainment,40.41472295273593,-3.7006151566523107,Teatro Español,Cortes
37,"Pl. del Ángel, 10",Arts & Entertainment,40.414342867121555,-3.701595920462117,Café Central Madrid,Cortes
38,"C. Alcala, 15",Arts & Entertainment,40.4177045801265,-3.700036810016488,Casino de Madrid,Cortes
39,Gran Vía 24,Arts & Entertainment,40.42002161789502,-3.7010766821796968,Casino Gran Via,Cortes
40,"C. de las Tres Cruces, 12",Arts & Entertainment,40.41977792470539,-3.7025652571183416,Wurlitzer Ballroom,Cortes
41,"Pl. de Cibeles, 1",Arts & Entertainment,40.41918847724804,-3.69246364478252,Palacio de Cibeles,Cortes
42,"C. del Príncipe, 12",Arts & Entertainment,40.415885129468236,-3.7003452053802204,O'Neill's,Cortes
43,C/ de los Jardines 3,Arts & Entertainment,40.41896786938167,-3.7016801838228646,Sala El Sol,Cortes
44,"C. Moratín, 35",Arts & Entertainment,40.412610286054615,-3.6958377757918495,Jazz Bar,Cortes
45,"Carrera de San Jerónimo, 24",Arts & Entertainment,40.41639473755592,-3.6997445782219285,Teatro Reina Victoria,Cortes
46,"C. de las Tres Cruces, 8-10",Arts & Entertainment,40.41962778987707,-3.7027782144153623,Teatro Príncipe Gran Vía,Cortes
47,C. Ruiz de Alarcón,Arts & Entertainment,40.41452460608094,-3.6914532715948325,Iglesia de San Jerónimo el Real,Cortes
48,"C/ Caballero de Gracia, 10",Arts & Entertainment,40.41953033061342,-3.700691837169188,Costello Club,Cortes
49,"C/ Echegaray, 18",Arts & Entertainment,40.41527285683364,-3.69962223895046,Sol & Sombra,Cortes
0,Plaza de Cánovas del Castillo,Park,40.417032957317296,-3.6938749191857716,Fuente de Apolo,Cortes
0,"Plaza de las Cortes, 7",Athletics & Sports,40.4148676477557,-3.695091310887144,Fitness The Westin Palace,Cortes
1,,Athletics & Sports,40.41720645183158,-3.6933252597767625,rock and roll madrid maraton,Cortes
2,,Athletics & Sports,40.415145,-3.696625,Fitness Center At Doubletree Hilton Prado,Cortes
3,San Jerónimo 16,Athletics & Sports,40.416565,-3.700937,Centro de Yoga Iyengar,Cortes
4,"C. Atocha, 24",Athletics & Sports,40.413634575938765,-3.7023001389780696,Basic-Fit,Cortes
5,,Athletics & Sports,40.41830715629391,-3.695515067005635,La Vuelta,Cortes
6,,Athletics & Sports,40.41920233549665,-3.7020249773629152,Basic Fit Montera,Cortes
7,,Athletics & Sports,40.419575,-3.702338,Básicamente Fit Montera,Cortes
8,Paseo de Recoletos 22,Athletics & Sports,40.419956,-3.6926568,10 mil de Madrid,Cortes
9,Calle Los Madrazo 28,Athletics & Sports,40.41769717595007,-3.696619915228293,Nature Pilates,Cortes
10,Plaza del Angel,Athletics & Sports,40.414382390474,-3.701874586944422,Palacio Santa Ana,Cortes
11,Juanelo,Athletics & Sports,40.41465307630052,-3.7022944094471413,Ashtanga Yoga,Cortes
12,Plaza Mayor 35,Athletics & Sports,40.420226456463936,-3.701609373368244,MadRuns Plaza Mayor,Cortes
13,,Athletics & Sports,40.41495,-3.69449,Gym NH Hotel Paseo del Prado,Cortes
14,,Athletics & Sports,40.414633450924796,-3.7011089189252298,ME Madrid Fitness Center,Cortes
15,"Calle Atocha, 56",Athletics & Sports,40.412005,-3.698799,A Yoga,Cortes
16,"C. de la Cruz, 28",Athletics & Sports,40.41472198611652,-3.702877874164478,Masvitalzenter,Cortes
17,,Athletics & Sports,40.41183844188649,-3.6983887135119478,Asociación Española De Tao Yin,Cortes
18,,Athletics & Sports,40.420084,-3.700777,Ac Hotel Circulo Gran Via Fitness,Cortes
19,Paseo del Prado,Athletics & Sports,40.41365942513382,-3.69314432144165,MadRuns,Cortes
20,"Calle de Alcalá, 15",Athletics & Sports,40.41791157062788,-3.6995679467201166,Gimnasio del Casino de Madrid,Cortes
21,Plaza de Cibeles,Athletics & Sports,40.41953697706209,-3.6931568169934623,MadRuns Cibeles,Cortes
22,"Calle de Atocha, 49",Athletics & Sports,40.413065,-3.700343,Axel Wellness,Cortes
23,,Athletics & Sports,40.421115,-3.696294,Korppos Chueca,Cortes
24,Plaza de Antón Martín,Athletics & Sports,40.412709298755416,-3.6977991072134295,SogoGym,Cortes
25,Calle San Marcos 31,Athletics & Sports,40.421498238333015,-3.698507626539156,Moove It!,Cortes
26,,Athletics & Sports,40.415443,-3.692625,Hotel Ritz Gym,Cortes
27,,Athletics & Sports,40.413108,-3.700931,Gym Hotel Catalonia Plaza Mayor,Cortes
28,Calle De Las Infantas 42,Athletics & Sports,40.420034,-3.697658,Wod Element,Cortes
29,"C. Libertad, 7",Athletics & Sports,40.42062174750986,-3.697421517477151,Gym Libertad,Cortes
30,,Athletics & Sports,40.417733936005675,-3.7002913554810566,El gimnasio del Casino,Cortes
31,Calle Clavel 7,Athletics & Sports,40.420568,-3.699234,BodyVip,Cortes
32,Infantas 40,Athletics & Sports,40.42022656164954,-3.6981905257542804,De Ceglie STUDIO,Cortes
33,"Av. Monforte De Lemos, 164",Athletics & Sports,40.41850850613646,-3.70249632953781,Gimnasio 30 min,Cortes
0,25 Calle del Marqués de Cubas,School,40.41635,-3.695648,El Lucero - Escuela Flamenco,Cortes
1,Calle del Príncipe 12,School,40.415843,-3.700442,Instituto Árabe,Cortes
2,,School,40.417502915173614,-3.699122014964895,lingua viva,Cortes
3,"C. de la Victoria, 2",School,40.416548229997005,-3.7017070382423287,Talking Point,Cortes
4,Atocha 28,School,40.41342563680862,-3.7019314506269403,Academia Jurispericia,Cortes
5,,School,40.41312,-3.702308,Tilde - cursos de español,Cortes
6,,School,40.41298568612376,-3.702179203759064,Alarde Danza,Cortes
7,"Calle Alcalá 20, 4º, oficina 402",School,40.417080007141045,-3.69864284992218,ENGLISH CORPORATE - Consultores de Idiomas -,Cortes
8,,School,40.420613544549276,-3.697110416119069,Lengua de Trapo,Cortes
0,C/ San Marcos 39,University,40.4214661652186,-3.6966991877773605,Cálamo & Cran,Cortes
0,Carrera de San Jerónimo 44,Bank,40.41592411675717,-3.6976752412173046,Deutsche Bank,Cortes
1,Calle Alcala 29,Bank,40.418437981028,-3.6984162032604218,Ibercaja,Cortes
2,"Calle de Cedaceros, 6",Bank,40.41744808,-3.69864648,Bankia,Cortes
3,"C. Alcalá, 48",Bank,40.41897447446289,-3.6949007223790455,Banco de España,Cortes
4,"C. Alcalá, 28",Bank,40.41820134926431,-3.698463034121204,Banco Santander,Cortes
5,Carrera de San Jerónimo,Bank,40.41665935498721,-3.698477898256155,Liberbank,Cortes
6,"Alcalá, 16",Bank,40.417723699851564,-3.699781004390439,BBVA Oficina,Cortes
7,,Bank,40.41510535200908,-3.699037783852375,BBVA Plaza Puerta Del Sol,Cortes
8,"CL. CABALLERO DE GRACIA, 24",Bank,40.419443,-3.699905,EspañaDuero Banco,Cortes
9,Puerta Del Sol,Bank,40.41624968187593,-3.701183243529612,Bankia,Cortes
10,,Bank,40.419204467888484,-3.6978189258009495,Banco sabadell,Cortes
11,Plaza Tirso Molina,Bank,40.413026143099884,-3.702501284643868,Bbva,Cortes
12,,Bank,40.42088427489898,-3.698126114900179,Banco Sabadell,Cortes
13,Barquillo 6,Bank,40.420192239992936,-3.6958916044966994,Arquia Caja De Arquitectos,Cortes
14,"Pz. De Las Cortes, 11",Bank,40.41670997998324,-3.6987454534319326,BBVA Oficina,Cortes
15,Barquillo,Bank,40.421099426991525,-3.6957925154115414,La Caixa,Cortes
16,"Calle Atocha, 55",Bank,40.412994,-3.699909,Banco Santander,Cortes
17,Gran Via 6,Bank,40.41947257379483,-3.698116205545287,Sabadell Atlántico,Cortes
18,Gran Via 13,Bank,40.419429779052734,-3.7002313137054443,Kutxabank,Cortes
19,Paseo Recoletos,Bank,40.42041089888206,-3.6928744288799886,Icbc,Cortes
20,"Atocha, 59 (Pl.De Anton Martin)",Bank,40.41370350025386,-3.6993598447453175,BBVA Oficina,Cortes
21,Alcalá 1,Bank,40.41710365802735,-3.7020652371676643,Bankia,Cortes
22,"Calle de la Aduana, 33",Bank,40.41845517049842,-3.699721546345694,CaixaBank Of. 0079,Cortes
23,"Calle Virgen De Los Peligros, 5",Bank,40.41885026075079,-3.699553082264964,Unicaja Banco,Cortes
24,"Juan De Mena, 1",Bank,40.4173031,-3.6927173,BBVA Oficina,Cortes
25,"C. Gran Vía, 5",Bank,40.41911598358019,-3.6974770562542396,Caja de Burgos,Cortes
26,,Bank,40.416506,-3.698884,Barclays,Cortes
27,,Bank,40.413957,-3.693674,Bankinter,Cortes
28,Calle Mayor 20,Bank,40.416288027113815,-3.6998206431257463,Servicaixa,Cortes
29,"Alcalá, 16",Bank,40.419353965896356,-3.6995927208217387,BBVA,Cortes
30,"Calle de Santa Isabel, 10, 28012 Madrid",Bank,40.41201619582915,-3.6985026718241096,Banco Popular,Cortes
31,"Ps. Del Prado, 18-20",Bank,40.4139921,-3.6931998,BBVA Oficina,Cortes
32,,Bank,40.41263693414498,-3.6996967721810012,Banco Santander,Cortes
33,"Pl. Canalejas, 1",Bank,40.41684976181407,-3.7024616438089826,Banco Santander,Cortes
34,,Bank,40.42192647631631,-3.6957578342775883,Bankia,Cortes
35,"C/Alcalá, 24",Bank,40.41794096452424,-3.6986364493006545,Cajamar Caja Rural,Cortes
36,"Plaza De La Lealtad, 2",Bank,40.415966468034405,-3.69266140029385,Banesto,Cortes
37,"Montera, 48",Bank,40.42000030094319,-3.7016589235823316,BBVA Oficina,Cortes
38,"C/ Virgen de los Peligros, 4",Bank,40.41852873092679,-3.6995976756435196,Banco Cooperativo Español,Cortes
39,,Bank,40.417275125519346,-3.7028927395553555,Bankia,Cortes
40,"ALCALA, 22",Bank,40.4178,-3.69889,Liberbank - CCM,Cortes
41,Huertas,Bank,40.413356361093534,-3.6951831218050555,Bankia Calle Huertas,Cortes
42,"ALCALA, 19",Bank,40.41767197220762,-3.699944514373703,Liberbank - Caja Extremadura,Cortes
43,"Alcalá, 5",Bank,40.41746403821558,-3.6999544240866387,Banco Español De Credito,Cortes
44,"C. Juan de Mena, 8",Bank,40.41845946796857,-3.69127425935164,Banco Santander,Cortes
45,"Prim, 6",Bank,40.4218842,-3.694448,BBVA Oficina,Cortes
46,,Bank,40.41320353187204,-3.7017183839032715,Banesto,Cortes
47,"C. Conde de Xiquena, 6",Bank,40.42204,-3.694043,Banco Santander,Cortes
48,Av. Monforte de Lemos 36,Bank,40.41493535041692,-3.7008905410765527,Bankia,Cortes
0,"Calle de Alcalá, 19",Pharmacy,40.41762076113816,-3.6999494692299275,Herbolario Navarro,Cortes
1,Calle infantas 42,Pharmacy,40.420124242133035,-3.698051794785794,Farmacia Infantas,Cortes
2,Virgen de los Peligros 11,Pharmacy,40.41865921020508,-3.6991748809814453,Farmacia David Lagos Sánchez,Cortes
3,Sol,Pharmacy,40.41692107842013,-3.702456688706806,Farmacia Company,Cortes
4,León 13,Pharmacy,40.41392362320359,-3.6989832814425165,Farmacia Leon,Cortes
5,Montera 9,Pharmacy,40.41750550332744,-3.7026251624529807,Farmacia Montera,Cortes
6,Virgen De Lo Peligros,Pharmacy,40.41975122624083,-3.7012476582750344,farmacia,Cortes
7,Gran Via 26,Pharmacy,40.420075158743344,-3.7015400031500176,Farmacia Lopez Vicente,Cortes
8,,Pharmacy,40.420444,-3.700808,Farmacia Collazo,Cortes
9,Virgen De Los Peligros 11,Pharmacy,40.41879653930664,-3.701202869415283,Farmacia Internacional De Madrid (Ldo. David Lagos),Cortes
10,Plaza Del Angel,Pharmacy,40.41426641702081,-3.7024319132031933,Farmacia Plaza Del Angel,Cortes
11,"Calle de las Huertas, 17",Pharmacy,40.414037614499634,-3.7000931602714893,Farmácia Huertas,Cortes
12,"Salud, 10",Pharmacy,40.420365,-3.702575,Farmacia Ayuso de Dios,Cortes
13,"Calle de Juan de Mena, 11",Pharmacy,40.41713948,-3.69051203,Farmacia Adelina Delgado,Cortes
14,"Calle Príncipe, 15",Pharmacy,40.415338,-3.700417,Farmacia Lda. M. Cabrera Junquera,Cortes
15,"C. Barquillo, 7",Pharmacy,40.420553506787094,-3.695762157440186,Farmacia Flavio Cavallero,Cortes
16,Plaza del Ángel 14,Pharmacy,40.414632067921545,-3.6952871640962477,Farmacia,Cortes
17,,Pharmacy,40.41383249004402,-3.7001327992513056,Farmacia Principe,Cortes
18,"Plaza Vázquez De Mella, 11",Pharmacy,40.42079037618636,-3.6990129947662354,De Soto Centro Dietético,Cortes
19,Calle Atocha,Pharmacy,40.41318600493502,-3.7020255966742863,Abraham,Cortes
0,"C. Fernando VI, 23",Food,40.424751875150555,-3.6956153895680166,Mamá Framboise,Justicia
1,"Calle de Fernando VI, 2",Food,40.42581582625872,-3.696972505132381,La Duquesita,Justicia
2,"Calle fernando VI, 2",Food,40.42590374385119,-3.69719353006256,Makkila,Justicia
3,Calle Hortaleza 100,Food,40.42487975679924,-3.697894121919185,Honest Greens,Justicia
4,"C. Infantas, 30",Food,40.420206995804506,-3.6979471668178476,Sidrería El Tigre,Justicia
5,"C. Génova, 27",Food,40.425760357264515,-3.691781759262085,Starbucks Génova 27,Justicia
6,"C. San Gregorio, 8",Food,40.423931834818674,-3.6970759687077974,Frida,Justicia
7,"C. Fuencarral, 101",Food,40.428001857677444,-3.7019833554537964,Starbucks Fuencarral 101,Justicia
8,"Calle Marqués de Monasterio, 6",Food,40.423134,-3.693449,Hermanas Arce,Justicia
9,"Pl. de Pedro Zerolo, 12",Food,40.42075183549848,-3.6993145297210788,Starbucks Room Mate Oscar,Justicia
10,"Plaza de Santa Bárbara, 4",Food,40.42745456346782,-3.696166326503131,Manolo Bakes,Justicia
11,"C. Gran Vía, 12",Food,40.419531818561246,-3.6988707977016086,Mercado de la Reina,Justicia
12,"C. Hortaleza, 52",Food,40.422396252036314,-3.6994208517652574,Vivares,Justicia
13,"Pl. de Santa Bárbara, 8",Food,40.426969891631444,-3.6961963126894295,Santa Bárbara,Justicia
14,"Calle de Génova, 28",Food,40.42548355338372,-3.6913277741268846,Habanera,Justicia
15,"Calle de Velarde, 2",Food,40.42671646017108,-3.7018236096581845,La Pecera,Justicia
16,"Pza. del Rey, 4",Food,40.42022814465515,-3.695931722731058,Revoltosa,Justicia
17,Francisco de Rojas 9,Food,40.42992148420876,-3.6997984076711017,la colectiva café,Justicia
18,Paseo de Recoletos 31,Food,40.423786557888235,-3.6913042066570143,El Pabellón de El Espejo,Justicia
19,"C. de la Reina, 29",Food,40.41990689012166,-3.6987179885049537,La Barraca,Justicia
20,"C. Augusto Figueroa, 5",Food,40.42298463206484,-3.700180455870197,Mistura,Justicia
21,"C. Hortaleza, 84",Food,40.42379534723905,-3.698597330722856,Pizzaiolo,Justicia
22,"C. Fuencarral, 57",Food,40.42423010607013,-3.700819251110139,Mercado de San Ildefonso,Justicia
23,"Pl. Ildefonso, 9",Food,40.42378960159269,-3.7022626514465546,La Bicicleta Café,Justicia
24,"C. San Vicente Ferrer, 29",Food,40.425769484088704,-3.7037136029767845,Café Manuela,Justicia
25,"C. Ballesta, 32",Food,40.42288279065907,-3.7032084227445803,La Pescadería,Justicia
26,"C. Almagro, 3",Food,40.42821006735003,-3.695088992676898,Lamucca de Almagro,Justicia
27,"C. Fuencarral, 73",Food,40.425011715837506,-3.700787857475491,Steak Burger Bar,Justicia
28,"Plaza de Santa Bárbara, 4",Food,40.42779040359148,-3.6962475947179625,Cafetería Santander,Justicia
29,Pl. de Carlos Cambronero 4,Food,40.423160346582144,-3.7040597217866043,Lamucca,Justicia
30,"C. Hortaleza, 11",Food,40.420990391056904,-3.7006316585051886,Stop Madrid,Justicia
31,Calle Fuencarral,Food,40.425305,-3.700772,Ôven MOZZARELLA BAR,Justicia
32,Gran Via,Food,40.419743676076244,-3.699453236195434,Steakburger Bar (Gran Via),Justicia
33,"Calle Gran Via, 6",Food,40.41924524133954,-3.6978500877927485,Ôven Mozzarella Bar,Justicia
34,19 Calle del Espíritu Santo,Food,40.42547618019526,-3.7043642238817385,La Colmada,Justicia
35,"C. Fuencarral, 49",Food,40.423747918148486,-3.70071716655042,ORIO Madrid Fuencarral,Justicia
36,"C. Hortaleza, 22",Food,40.42127956768636,-3.700368282337765,Mamá Inés Café,Justicia
37,"C. Espíritu Santo, 9",Food,40.42510696852098,-3.702911690431714,Lolina Vintage Café,Justicia
38,"C. Libertad, 1",Food,40.42022173012748,-3.6974001583264156,Celso y Manolo,Justicia
39,"C. Perez Galdós, 4",Food,40.42236378502141,-3.7003691876569693,La Tita Rivera,Justicia
40,Calle Génova 12,Food,40.426938244550676,-3.6943896052408887,Mallorca Market,Justicia
41,"C. Sagasta, 30",Food,40.427748,-3.697085,Tierra Burrito Bar,Justicia
42,"C. San Andrés, 1",Food,40.42539107275883,-3.7040164965431708,Ojalá,Justicia
43,"C. Espiritu Santo, 15",Food,40.42535219968041,-3.7037148472702186,Vacaciones,Justicia
44,"C. de la Puebla, 8",Food,40.42212279165881,-3.7025909845617453,Café de la Luz,Justicia
45,"C. Libertad, 21",Food,40.421289934462294,-3.697392702478642,Bazaar,Justicia
46,"C. Madera, 41",Food,40.42429216821949,-3.703590104092062,Casa Julio,Justicia
47,"C. Fuencarral, 61",Food,40.424389026710536,-3.700694476262775,Mérimée Fuencarral,Justicia
48,"C. de la Reina, 41",Food,40.419647701387746,-3.697201837743589,Yakitoro,Justicia
49,"C. Mejía Lequerica, 17",Food,40.427427197756224,-3.6993704646348204,La Petisqueira II,Justicia
0,"Regueros, 8",Food & Drink Shop,40.42460392606179,-3.6964391916207426,La Magdalena De Proust,Justicia
1,"C. Hortaleza, 65",Food & Drink Shop,40.42453935015472,-3.698203069778203,Carrefour Express,Justicia
2,"Calle de Gravina, 13",Food & Drink Shop,40.422886,-3.697121,Carrefour Express,Justicia
3,,Food & Drink Shop,40.426315,-3.697815,La Cervecista,Justicia
4,"C/ de Augusto Figueroa, 34",Food & Drink Shop,40.42210938512704,-3.6975947765470747,Supercor,Justicia
5,"C/ San Andrés, 12",Food & Drink Shop,40.426508094778825,-3.7036211510559203,DIA %,Justicia
6,"C. Barquillo, 36",Food & Drink Shop,40.42319718027652,-3.695564413148554,Carrefour Express,Justicia
7,"C. Barquillo, 11",Food & Drink Shop,40.42108278124368,-3.69579746986119,El Botiquín,Justicia
8,,Food & Drink Shop,40.427117,-3.696156,kiki market,Justicia
9,Calle de Mejía Lequerica 1,Food & Drink Shop,40.426016760221614,-3.6971847348506928,Patrimonio Comunal Olivarero,Justicia
10,,Food & Drink Shop,40.422666,-3.697617,Japon Market 24H,Justicia
11,,Food & Drink Shop,40.421774,-3.697321,Veritas,Justicia
12,,Food & Drink Shop,40.424899,-3.695799,Tomad Mucha Fruta,Justicia
13,"C. San Joaquín, 8",Food & Drink Shop,40.42472,-3.70133,Carrefour Express,Justicia
14,Calle Barceló. puesto 125,Food & Drink Shop,40.42672,-3.6985085,"Casqueria, Carnicería, Charcutería José Antonio Fernández",Justicia
15,calle Barceló. Puesto 127,Food & Drink Shop,40.426693,-3.698622,Pescados Y Mariscos Javier,Justicia
16,,Food & Drink Shop,40.42323803316083,-3.6955299302745193,Simply City,Justicia
17,"Barceló, 6",Food & Drink Shop,40.42664650266132,-3.698970079421997,Craft Crew Madrid,Justicia
18,"C. de Orellana, 4",Food & Drink Shop,40.4267875779003,-3.695629650046043,Cacao Sampaka,Justicia
19,Augusto Figueroa 24,Food & Drink Shop,40.422157475095865,-3.6976108310191593,La Charcuteria de Octavio,Justicia
20,,Food & Drink Shop,40.421361,-3.69873,Entre Santos,Justicia
21,"C. Fuencarral, 96",Food & Drink Shop,40.42761118517157,-3.7018204576633904,Carrefour Express,Justicia
22,Manuel Silvela 9,Food & Drink Shop,40.42924024271897,-3.6985992604400777,La Plaza de Día %,Justicia
23,C/ de Barceló,Food & Drink Shop,40.426697520654706,-3.700137909065274,DIA %,Justicia
24,"C. Augusto Figueroa, 24",Food & Drink Shop,40.422026654099746,-3.6976117762588196,Mercado de San Antón,Justicia
25,C. Virgen de los Peligros 9,Food & Drink Shop,40.41892696764651,-3.699818892487905,Día & Go,Justicia
26,velarde 1,Food & Drink Shop,40.426632,-3.7015193,Bio,Justicia
27,San Vicente Ferrer 21,Food & Drink Shop,40.42561788064848,-3.702635072690808,Veggie ROOM,Justicia
28,"Calle Corredera Baja de San Pablo, 33",Food & Drink Shop,40.422688,-3.703495,El Granel de Corredera,Justicia
29,San Vicente Ferrer 10,Food & Drink Shop,40.42571207450704,-3.7024864193271476,Black Pepper & Co,Justicia
30,,Food & Drink Shop,40.424215,-3.700894,The Beer Experience,Justicia
31,Corredera Alta San Pablo 7,Food & Drink Shop,40.42485449972986,-3.701867035011236,ultramarinos y fiambres r. garcía,Justicia
32,,Food & Drink Shop,40.425244,-3.703349,Hermanos Salvadores,Justicia
33,Calle Espíritu Santo,Food & Drink Shop,40.425964,-3.702939,Supermercado Internacional,Justicia
34,"C/Espíritu Santo, 36",Food & Drink Shop,40.42543774843782,-3.7045168876647954,Despacio Arte y Vino,Justicia
35,,Food & Drink Shop,40.421984,-3.697564,Fish Corner,Justicia
36,Ballesta,Food & Drink Shop,40.42291951611389,-3.7032874259438615,Dia %,Justicia
37,"Calle Argensola, 27",Food & Drink Shop,40.426534548910574,-3.6939543292536308,Poncelet,Justicia
38,"C. Hortaleza, 17",Food & Drink Shop,40.42138373023831,-3.700312503053705,Carrefour Express,Justicia
39,Plaza de San Ildefonso,Food & Drink Shop,40.423878,-3.7023768,Spass Día 365,Justicia
40,C/ de las Infantas 21,Food & Drink Shop,40.42022735825182,-3.6981526141273418,DIA %,Justicia
41,"C. Argensola, 27",Food & Drink Shop,40.42650721373122,-3.694099187850952,Poncelet Punto Selecto,Justicia
42,"C. San Onofre, 3",Food & Drink Shop,40.4214282380439,-3.701467942675417,El Horno de San Onofre,Justicia
43,"Plaza Vázquez De Mella, 11",Food & Drink Shop,40.42079037618636,-3.6990129947662354,De Soto Centro Dietético,Justicia
44,,Food & Drink Shop,40.421234,-3.702006,Spain-phills,Justicia
45,"C. Augusto Figueroa, 30",Food & Drink Shop,40.4220773477551,-3.6969578757772013,Bee Beer,Justicia
46,"Corredera Alta de San Pablo, 9",Food & Drink Shop,40.424944553575905,-3.7020367389518554,Greek and Shop,Justicia
47,San Marcos 20,Food & Drink Shop,40.42150254770852,-3.698766268016585,Taste of America,Justicia
0,"c/ Fernando VI, 13",Clothing Store,40.42528657629754,-3.696244362053129,Do Design,Justicia
1,"C/ Gravina, 1",Clothing Store,40.423384,-3.698493,Dirty Pop,Justicia
2,Calle de Gravina 12,Clothing Store,40.423002,-3.697265,Socks Market,Justicia
3,12 Calle de Santa Teresa,Clothing Store,40.42542,-3.695228,mint&rose,Justicia
4,,Clothing Store,40.422202,-3.697824,Mumy room,Justicia
5,"Calle del Barquillo, 38",Clothing Store,40.42348439156075,-3.695466737344759,Scotch & Soda,Justicia
6,"C. Fuencarral, 17",Clothing Store,40.42118943110897,-3.7011743508755446,Diesel,Justicia
7,Fuencarral 50,Clothing Store,40.423432997398756,-3.700657584083598,Ese O Ese,Justicia
8,Fuencarral 16,Clothing Store,40.421411172299955,-3.701099921347004,Cos,Justicia
9,"C. Fuencarral, 68",Clothing Store,40.42474194219849,-3.700686338951601,Mango,Justicia
10,Calle Fuencarral 21,Clothing Store,40.421455,-3.7010765,Springfield,Justicia
11,"Calle Fuencarral, 14",Clothing Store,40.42119300825429,-3.7011340931924743,Victoria's Secret,Justicia
12,Velarde 3,Clothing Store,40.42671700380051,-3.702331056431539,Magpie,Justicia
13,C/ Fuencarral 36-38,Clothing Store,40.42271707770351,-3.700778020985765,Desigual Fuencarral,Justicia
14,Augusto Figueroa 31,Clothing Store,40.422356,-3.6980963,Dama De Copas,Justicia
15,,Clothing Store,40.424175,-3.700566,Renatta&Go,Justicia
16,"Calle de Fuencarral, 67",Clothing Store,40.42406562272459,-3.700622320175171,Muroexe Official Store,Justicia
17,Fuencarral 60,Clothing Store,40.42385220740876,-3.7006757558985006,Sfera,Justicia
18,"C.  Fuencarral, 52",Clothing Store,40.4235502752289,-3.7005548925067346,Brandy Melville,Justicia
19,,Clothing Store,40.42194178427979,-3.7011981084635868,women'secret,Justicia
20,,Clothing Store,40.427768,-3.701954,Sportown,Justicia
21,Orellana 12,Clothing Store,40.426412011263466,-3.694796680882655,The Corner,Justicia
22,Conde de Xiquena,Clothing Store,40.42374099492554,-3.6939940822460073,Carolina Herrera,Justicia
23,,Clothing Store,40.421613704001224,-3.699092286320937,Boxer Madrid,Justicia
24,Fuencarral 54,Clothing Store,40.42362,-3.700739,Brownie,Justicia
25,,Clothing Store,40.424375,-3.702077,American Vintage,Justicia
26,,Clothing Store,40.424042,-3.700764,Pompeii:,Justicia
27,"C. Pelayo, 2",Clothing Store,40.42178885171883,-3.6990972410937175,XXX Madrid,Justicia
28,"C. Barco, 38",Clothing Store,40.42333452754347,-3.702256481952702,Monkey Garden,Justicia
29,"C. Corredera Baja de San Pablo, 45",Clothing Store,40.42312977334206,-3.702967635481215,La Antigua,Justicia
30,,Clothing Store,40.42528318341771,-3.703224735333841,La Pizarra,Justicia
31,C. Luchana,Clothing Store,40.42859011382513,-3.699488669676425,Mulaya,Justicia
32,"Calle Fuencarral, Nº 18",Clothing Store,40.42166152026739,-3.7010383106971982,Pimkie,Justicia
33,,Clothing Store,40.423736,-3.701587,Dear Tee,Justicia
34,Corredera Alta de San Pablo Local 3,Clothing Store,40.424488099786515,-3.7020456441725944,Rughara,Justicia
35,Fuencarral 9,Clothing Store,40.42082577668762,-3.7013781397345626,Levi's Store,Justicia
36,Velarde,Clothing Store,40.426734366621275,-3.7017716781393113,La Mona Checa,Justicia
37,"C. Corredera Alta de San Pablo, 4",Clothing Store,40.42488168628657,-3.702045416917094,Retro City,Justicia
38,"C. Fuencarral, 13",Clothing Store,40.42086474182441,-3.7013243321189826,Parfois,Justicia
39,Calle almirante 27,Clothing Store,40.42255375873346,-3.692547455139351,Zadig & voltaire,Justicia
40,"Hortaleza, 54",Clothing Store,40.42252285322302,-3.699379663944142,•ES• Collection,Justicia
41,,Clothing Store,40.42070424455821,-3.701515228095123,urban jungle,Justicia
42,"Calle de Fuencarral, 20, 28004 Madrid",Clothing Store,40.42181791578524,-3.7009733747294273,El Ganso (Fuencarral 20),Justicia
43,Calle Fuencarral 10,Clothing Store,40.42096588645057,-3.70107009077401,Michael Kors,Justicia
44,"Calle De Fuencarral, 18",Clothing Store,40.42172751543872,-3.700844216614314,Calvin Klein Jeans,Justicia
45,"Corredera Alta de San Pablo, 21",Clothing Store,40.42584619831552,-3.7018201527200567,Chopper Monster,Justicia
46,Gran vía,Clothing Store,40.41977433302769,-3.700036512862739,New Balance,Justicia
47,"C. Fuencarral, 16",Clothing Store,40.42153664492915,-3.701025122322655,Lot Of ColOrs,Justicia
48,"calle Apodaca,1",Clothing Store,40.42725572268275,-3.7014320495330244,Le Salon d'Apodaca,Justicia
49,"C. Churruca, 5",Clothing Store,40.42708637286731,-3.7007957538846203,sivasdescalzo,Justicia
0,C. Gran Vía 14,Bus Stop,40.419777,-3.69926,Parada EMT 5138,Justicia
1,,Bus Stop,40.426063,-3.697537,Parada EMT 5876,Justicia
2,"Calle Francisco de Rojas, 1",Bus Stop,40.4292,-3.69951,Parada EMT 281,Justicia
0,Plaza de Chueca 4,Metro Station,40.42266353598151,-3.6976138174242887,Metro Chueca,Justicia
1,Gta. de Alonso Martínez,Metro Station,40.4275762409139,-3.69576088323938,Metro Alonso Martínez,Justicia
2,"C. Fuencarral, 78",Metro Station,40.42620465394494,-3.70112619682605,Metro Tribunal,Justicia
3,C/ Génova 29,Metro Station,40.425543923665536,-3.691180944442749,Metro Colón,Justicia
4,Estación Tribunal,Metro Station,40.42621538053006,-3.7009176797847605,El Abismo De Helm,Justicia
5,Raímundo Fernández Villaverde,Metro Station,40.42680676852571,-3.691759754353641,Metro L8 Nuevos Ministerios-Aeropuerto,Justicia
6,,Metro Station,40.427057321765034,-3.6933539376326254,Metro Madrid Línea 4,Justicia
7,,Metro Station,40.426234,-3.70093,L1 Bilbao,Justicia
8,,Metro Station,40.4292083,-3.6995373,En el metro de Japon,Justicia
0,"Calle Angosta de los Mancebos, 2",Arts & Entertainment,40.42519683999982,-3.6976847258312544,Hotel Kafka,Justicia
1,"C. Regueros, 5",Arts & Entertainment,40.424582506762135,-3.696574248531653,Sala Búho Real,Justicia
2,"C. San Mateo, 13",Arts & Entertainment,40.42580188257195,-3.6988496877961543,Museo del Romanticismo,Justicia
3,"C. Puebla, 22",Arts & Entertainment,40.42357942125032,-3.705241532598097,Iglesia de San Antonio de los Alemanes,Justicia
4,"P. de la Castellana, 4",Arts & Entertainment,40.42522539747959,-3.6905479431152344,Monumento a Cristobal Colón,Justicia
5,"Marqués de la Ensenada, 12",Arts & Entertainment,40.42462990301491,-3.6919976714350207,Institut Français de Madrid,Justicia
6,,Arts & Entertainment,40.423252,-3.704532,teatro flamenco,Justicia
7,"P. de Recoletos, 41",Arts & Entertainment,40.42494200768657,-3.6913515125841214,Museo de Cera,Justicia
8,"Pl. Santa Bárbara, 10",Arts & Entertainment,40.42650549050054,-3.6965334175229505,El Junco,Justicia
9,Pl. de la Villa de París,Arts & Entertainment,40.425383878557085,-3.6933847103048,Plaza de la Villa de París,Justicia
10,"C. de Orfila, 5",Arts & Entertainment,40.427429904562146,-3.692864520553761,Galería Marlborough,Justicia
11,,Arts & Entertainment,40.42564070473477,-3.7010544142847213,museo municipal De Madrid,Justicia
12,"C. del Barquillo, 44, 1D",Arts & Entertainment,40.424266,-3.695446,Galería Juana de Aizpuru,Justicia
13,General Castanos 7,Arts & Entertainment,40.425281814647924,-3.6936126046429423,Freijo Fine Art,Justicia
14,,Arts & Entertainment,40.42384729476967,-3.7007494322379326,Centro Asturiano De Madrid,Justicia
15,,Arts & Entertainment,40.4234523032102,-3.701584598279391,Galería-Taller De Grabado de José Rincón,Justicia
16,Calle del Pez 7,Arts & Entertainment,40.42330325140642,-3.7047039507375543,la fiambrera,Justicia
17,,Arts & Entertainment,40.42390300421867,-3.7021841588340765,Iglesia De San Ildefonso,Justicia
18,La palma 14,Arts & Entertainment,40.426201,-3.702713,Scabenger Escape,Justicia
19,Calle Zurbano 7,Arts & Entertainment,40.4279665956448,-3.6935630623081748,Palacio de Zurbano,Justicia
20,,Arts & Entertainment,40.423847,-3.696995,Deco Open Night,Justicia
21,"C. Barceló, 11",Arts & Entertainment,40.42691805833301,-3.699628205871563,Sala But (Ochoymedio),Justicia
22,"C/ del Almirante, 9",Arts & Entertainment,40.42257662972243,-3.6947980739400763,Toni 2,Justicia
23,"C.  Fuencarral, 78",Arts & Entertainment,40.425690338290416,-3.7009721143035392,Museo de Historia (Museo Municipal de Madrid),Justicia
24,"C. del Pez, 10",Arts & Entertainment,40.42325504717104,-3.704601912217487,Teatro Alfil,Justicia
25,Calle de las Infantas 8,Arts & Entertainment,40.4207653,-3.7003844,Tattoo Magic,Justicia
26,C/ tres peces 34,Arts & Entertainment,40.42470078669139,-3.7051027823010703,El Local de Tres Peces,Justicia
